~Version
 VERS              .         3.0                           : CWLS LOG ASCII STANDARD - VERSION 3.0
 WRAP              .         NO                            : ONE LINE PER DEPTH STEP
 DLM               .         SPACE                         : DELIMITING CHARACTER(SPACE TAB OR COMMA)
~Well Information
#_______________________________________________________________________________
#
#PARAMETER_NAME    .UNIT     VALUE                         : DESCRIPTION
#_______________________________________________________________________________
STRT               .m        3.81                          : First reference value
STOP               .m        2245.7664                     : Last reference value
STEP               .m        0.1524                        : Step increment
NULL               .         -9999                         : Missing value
COMP               .                                       : Company
WELL               .         1-ALV-2-BA                    : Well name
FLD                .         REC-T-155                     : Field
LOC                .                                       : Location
SRVC               .                                       : Service Company
CTRY               .                                       : Country
DATE               .                                       : Service Date
X                  .                                       : X or East-West coordinate
Y                  .                                       : Y or North South coordinate
GDAT               .                                       : Geodetic Datum
HZCS               .                                       : Horizontal Co-ordinate System
COMPANY            .         ALVORADA                      : 
CREATION-TIME      .         2021/8/18 13_56               : 
FIELD-NAME         .         REC-T-155                     : 
FILE-ID            .         ALV2FM.001                    : 
FILE-NUMBER        .         2                             : 
FILE-SET-NAME      .         LIS-TO-DLIS-CONVERSION        : 
FILE-SET-NUMBER    .         8788                          : 
FILE-TYPE          .         OAKSFT                        : 
NAME-SPACE-NAME    .                                       : 
NAME-SPACE-VERSION .         0                             : 
PRODUCER-CODE      .         440                           : 
PRODUCER-NAME      .         Schlumberger                  : 
PRODUCT            .         DLIS/U                        : 
PROGRAMS           .         LIS-TO-DLIS                   : 
VERSION            .         0.1                           : 
WELL-ID            .         20240024159                   : 
WELL-NAME          .         1-ALV-2-BA                    : 
~Parameter Information Block
#_______________________________________________________________________________
#
#PARAMETER_NAME    .UNIT     VALUE                         : DESCRIPTION
#_______________________________________________________________________________
SET                .         Merged_Set                    : 
TLFamily_DENS      .         Bulk Density                  : 
TLFamily_GR        .         Gamma Ray                     : 
TLFamily_ILD       .         Deep Resistivity              : 
TLFamily_ILM       .         Medium Resistivity            : 
TLFamily_MD        .         Measured Depth                : 
TLFamily_Neu       .         Neutron Porosity              : 
TLFamily_Porosity-Density .         Porosity                      : 
TLFamily_VSH_GR    .         Shale Volume                  : 
~Curve Information
#_______________________________________________________________________________
#
#LOGNAME           .UNIT     LOG_ID                        : DESCRIPTION
#_______________________________________________________________________________
MD                 .m                                      :  {F}
DENS               .g/cm3                                  :  {F}
GR                 .gAPI                                   :  {F}
ILD                .ohm.m                                  :  {F}
ILM                .ohm.m                                  :  {F}
Neu                .m3/m3                                  :  {F}
Porosity-Density   .v/v                                    :  {F}
VSH_GR             .v/v                                    :  {F}
~Ascii
# ...
461.4672   -9999      59.07406   6.583917   6.907653   -9999      -9999      0.5452673 
461.6196   -9999      54.84124   6.367303   6.799741   -9999      -9999      0.498236  
461.772    -9999      50.834     6.180166   6.618076   -9999      -9999      0.4537111 
461.9244   -9999      48.73667   6.086174   6.473398   -9999      -9999      0.4304075 
462.0768   -9999      50.4567    6.119537   6.436551   -9999      -9999      0.4495189 
462.2292   -9999      52.21291   6.301376   6.534766   -9999      -9999      0.4690323 
462.3816   -9999      51.52042   6.610778   6.800047   -9999      -9999      0.461338  
462.534    -9999      48.55135   7.020343   7.283576   -9999      -9999      0.4283484 
462.6864   -9999      45.53508   7.486339   7.993234   -9999      -9999      0.3948343 
462.8388   -9999      42.28094   7.971252   8.763744   -9999      -9999      0.3586771 
462.9912   -9999      37.68871   8.302895   9.207332   -9999      -9999      0.3076523 
463.1436   -9999      35.28951   8.17917    8.991026   -9999      -9999      0.2809945 
463.296    -9999      35.65982   7.442237   8.185261   -9999      -9999      0.2851091 
463.4484   -9999      38.12777   6.296726   7.08782    -9999      -9999      0.3125307 
463.6008   -9999      40.0965    5.117634   5.897796   -9999      -9999      0.3344055 
463.7532   -9999      39.68965   4.259142   4.764328   -9999      -9999      0.329885  
463.9056   -9999      42.76086   3.647602   3.823486   -9999      -9999      0.3640096 
464.058    -9999      49.84909   3.259235   3.155948   -9999      -9999      0.4427676 
464.2104   -9999      57.17659   3.023544   2.74667    -9999      -9999      0.5241843 
464.3628   -9999      63.26219   2.898768   2.545267   -9999      -9999      0.5918021 
464.5152   -9999      66.78162   2.909249   2.505768   -9999      -9999      0.6309069 
464.6676   -9999      69.06586   3.05318    2.609719   -9999      -9999      0.6562873 
464.82     -9999      69.86462   3.314309   2.873956   -9999      -9999      0.6651625 
464.9724   -9999      65.19848   3.698155   3.33667    -9999      -9999      0.6133164 
465.1248   -9999      59.79753   4.175119   4.01672    -9999      -9999      0.5533059 
465.2772   -9999      56.92777   4.757632   4.829842   -9999      -9999      0.5214197 
465.4296   -9999      55.8318    5.424205   5.526454   -9999      -9999      0.5092422 
465.582    -9999      60.39555   6.034298   5.887639   -9999      -9999      0.5599505 
465.7344   -9999      63.59194   6.414611   5.948703   -9999      -9999      0.595466  
465.8868   -9999      61.98882   6.503256   5.898702   -9999      -9999      0.5776535 
466.0392   -9999      59.38168   6.387362   5.873324   -9999      -9999      0.5486854 
466.1916   -9999      55.04707   6.189186   5.912105   -9999      -9999      0.500523  
466.344    -9999      49.05752   6.026888   5.991991   -9999      -9999      0.4339724 
466.4964   -9999      46.31363   5.910386   6.065034   -9999      -9999      0.4034848 
466.6488   -9999      49.52202   5.832094   6.081126   -9999      -9999      0.4391336 
466.8012   -9999      52.35117   5.78784    6.025692   -9999      -9999      0.4705685 
466.9536   -9999      50.80923   5.785211   5.931615   -9999      -9999      0.4534359 
467.106    -9999      54.32734   5.825482   5.847263   -9999      -9999      0.4925259 
467.2584   -9999      59.35674   5.939365   5.816094   -9999      -9999      0.5484083 
467.4108   -9999      59.29437   6.085671   5.883382   -9999      -9999      0.5477152 
467.5632   -9999      59.05614   6.174321   6.086058   -9999      -9999      0.5450682 
467.7156   -9999      61.72249   6.193203   6.408572   -9999      -9999      0.5746943 
467.868    -9999      61.66651   6.168242   6.732863   -9999      -9999      0.5740724 
468.0204   -9999      54.58752   6.125279   6.861636   -9999      -9999      0.4954169 
468.1728   -9999      45.81208   6.072596   6.693469   -9999      -9999      0.397912  
468.3252   -9999      42.96469   5.980393   6.326576   -9999      -9999      0.3662743 
468.4776   -9999      46.1384    5.791199   5.94949    -9999      -9999      0.4015378 
468.63     -9999      49.29162   5.54989    5.664046   -9999      -9999      0.4365735 
468.7824   -9999      48.7811    5.318728   5.472967   -9999      -9999      0.4309011 
468.9348   -9999      50.1021    5.175552   5.338627   -9999      -9999      0.4455789 
469.0872   -9999      54.65187   5.128069   5.236804   -9999      -9999      0.4961319 
469.2396   -9999      57.81968   5.150596   5.181335   -9999      -9999      0.5313298 
469.392    -9999      58.38684   5.196598   5.201156   -9999      -9999      0.5376315 
469.5444   -9999      58.97227   5.240113   5.304883   -9999      -9999      0.5441364 
469.6968   -9999      60.91874   5.28107    5.45569    -9999      -9999      0.5657637 
469.8492   -9999      62.87637   5.327302   5.583796   -9999      -9999      0.5875152 
470.0016   -9999      62.82976   5.369246   5.633306   -9999      -9999      0.5869973 
470.154    -9999      63.56653   5.375949   5.596796   -9999      -9999      0.5951837 
470.3064   -9999      62.41728   5.331102   5.509187   -9999      -9999      0.5824143 
470.4588   -9999      59.44151   5.246243   5.398719   -9999      -9999      0.5493501 
470.6112   -9999      61.0913    5.159798   5.260969   -9999      -9999      0.5676812 
470.7636   -9999      65.62237   5.083958   5.08752    -9999      -9999      0.6180263 
470.916    -9999      66.19756   4.997167   4.896056   -9999      -9999      0.6244174 
471.0684   -9999      63.70772   4.837076   4.72528    -9999      -9999      0.5967524 
471.2208   -9999      61.09455   4.563216   4.587914   -9999      -9999      0.5677173 
471.3732   -9999      63.88974   4.210011   4.442238   -9999      -9999      0.5987749 
471.5256   -9999      68.43033   3.841231   4.212998   -9999      -9999      0.6492259 
471.678    -9999      67.60967   3.52302    3.862128   -9999      -9999      0.6401075 
471.8304   -9999      63.49424   3.273941   3.440274   -9999      -9999      0.5943804 
471.9828   -9999      62.65269   3.074146   3.046775   -9999      -9999      0.5850298 
472.1352   -9999      63.66745   2.90961    2.75148    -9999      -9999      0.596305  
472.2876   -9999      65.11298   2.785009   2.571625   -9999      -9999      0.6123664 
472.44     -9999      68.50871   2.681682   2.492853   -9999      -9999      0.6500967 
472.5924   -9999      70.82526   2.61838    2.484219   -9999      -9999      0.6758363 
472.7448   -9999      65.93758   2.581555   2.506907   -9999      -9999      0.6215286 
472.8972   -9999      60.70483   2.556348   2.522645   -9999      -9999      0.563387  
473.0496   -9999      58.97167   2.536461   2.506381   -9999      -9999      0.5441297 
473.202    -9999      63.48417   2.513186   2.452345   -9999      -9999      0.5942685 
473.3544   -9999      71.32613   2.482295   2.373758   -9999      -9999      0.6814014 
473.5068   -9999      73.10811   2.439322   2.293892   -9999      -9999      0.7012012 
473.6592   -9999      71.41254   2.383955   2.234684   -9999      -9999      0.6823615 
473.8116   -9999      73.30097   2.320644   2.206136   -9999      -9999      0.7033441 
473.964    -9999      74.60034   2.271689   2.202708   -9999      -9999      0.7177816 
474.1164   -9999      70.75223   2.254053   2.207264   -9999      -9999      0.6750247 
474.2688   -9999      65.01625   2.284492   2.205434   -9999      -9999      0.6112916 
474.4212   -9999      59.60464   2.360846   2.200573   -9999      -9999      0.5511627 
474.5736   -9999      59.47807   2.463222   2.214576   -9999      -9999      0.5497563 
474.726    -9999      63.90789   2.560477   2.272867   -9999      -9999      0.5989766 
474.8784   -9999      64.8323    2.614115   2.38829    -9999      -9999      0.6092477 
475.0308   -9999      67.30781   2.609351   2.538728   -9999      -9999      0.6367534 
475.1832   -9999      68.9023    2.565053   2.654075   -9999      -9999      0.65447   
