~Version
 VERS              .         3.0                           : CWLS LOG ASCII STANDARD - VERSION 3.0
 WRAP              .         NO                            : ONE LINE PER DEPTH STEP
 DLM               .         SPACE                         : DELIMITING CHARACTER(SPACE TAB OR COMMA)
~Well Information
#_______________________________________________________________________________
#
#PARAMETER_NAME    .UNIT     VALUE                         : DESCRIPTION
#_______________________________________________________________________________
STRT               .m        3.81                          : First reference value
STOP               .m        2245.7664                     : Last reference value
STEP               .m        0.1524                        : Step increment
NULL               .         -9999                         : Missing value
COMP               .                                       : Company
WELL               .         1-ALV-2-BA                    : Well name
FLD                .         REC-T-155                     : Field
LOC                .                                       : Location
SRVC               .                                       : Service Company
CTRY               .                                       : Country
DATE               .                                       : Service Date
X                  .                                       : X or East-West coordinate
Y                  .                                       : Y or North South coordinate
GDAT               .                                       : Geodetic Datum
HZCS               .                                       : Horizontal Co-ordinate System
COMPANY            .         ALVORADA                      : 
CREATION-TIME      .         2021/8/18 13_56               : 
FIELD-NAME         .         REC-T-155                     : 
FILE-ID            .         ALV2FM.001                    : 
FILE-NUMBER        .         2                             : 
FILE-SET-NAME      .         LIS-TO-DLIS-CONVERSION        : 
FILE-SET-NUMBER    .         8788                          : 
FILE-TYPE          .         OAKSFT                        : 
NAME-SPACE-NAME    .                                       : 
NAME-SPACE-VERSION .         0                             : 
PRODUCER-CODE      .         440                           : 
PRODUCER-NAME      .         Schlumberger                  : 
PRODUCT            .         DLIS/U                        : 
PROGRAMS           .         LIS-TO-DLIS                   : 
VERSION            .         0.1                           : 
WELL-ID            .         20240024159                   : 
WELL-NAME          .         1-ALV-2-BA                    : 
~Parameter Information Block
#_______________________________________________________________________________
#
#PARAMETER_NAME    .UNIT     VALUE                         : DESCRIPTION
#_______________________________________________________________________________
SET                .         Merged_Set                    : 
TLFamily_DENS      .         Bulk Density                  : 
TLFamily_GR        .         Gamma Ray                     : 
TLFamily_ILD       .         Deep Resistivity              : 
TLFamily_ILM       .         Medium Resistivity            : 
TLFamily_MD        .         Measured Depth                : 
TLFamily_Neu       .         Neutron Porosity              : 
TLFamily_Porosity-Density .         Porosity                      : 
TLFamily_VSH_GR    .         Shale Volume                  : 
~Curve Information
#_______________________________________________________________________________
#
#LOGNAME           .UNIT     LOG_ID                        : DESCRIPTION
#_______________________________________________________________________________
MD                 .m                                      :  {F}
DENS               .g/cm3                                  :  {F}
GR                 .gAPI                                   :  {F}
ILD                .ohm.m                                  :  {F}
ILM                .ohm.m                                  :  {F}
Neu                .m3/m3                                  :  {F}
Porosity-Density   .v/v                                    :  {F}
VSH_GR             .v/v                                    :  {F}
~Ascii
# ...
808.1772   -9999      42.45646   1.365241   1.594285   -9999      -9999      0.3606273 
808.3296   -9999      45.82761   1.345914   1.611184   -9999      -9999      0.3980846 
808.482    -9999      45.3825    1.30072    1.538297   -9999      -9999      0.3931389 
808.6344   -9999      41.84771   1.22503    1.40815    -9999      -9999      0.3538634 
808.7868   -9999      35.66053   1.139424   1.269381   -9999      -9999      0.285117  
808.9392   -9999      30.34102   1.059148   1.153893   -9999      -9999      0.2260114 
809.0916   -9999      27.00316   1.004624   1.072543   -9999      -9999      0.188924  
809.244    -9999      26.38374   0.9816652  1.027135   -9999      -9999      0.1820416 
809.3964   -9999      27.92303   0.9854021  1.01626    -9999      -9999      0.1991448 
809.5488   -9999      28.8651    1.005308   1.037519   -9999      -9999      0.2096123 
809.7012   -9999      30.25013   1.027178   1.085416   -9999      -9999      0.2250014 
809.8536   -9999      35.2961    1.044467   1.14498    -9999      -9999      0.2810678 
810.006    -9999      40.11681   1.058349   1.189653   -9999      -9999      0.3346313 
810.1584   -9999      37.765     1.068767   1.194495   -9999      -9999      0.3085    
810.3108   -9999      31.66922   1.068985   1.158156   -9999      -9999      0.2407691 
810.4632   -9999      27.20463   1.051839   1.10303    -9999      -9999      0.1911626 
810.6156   -9999      24.02139   1.01863    1.053129   -9999      -9999      0.1557932 
810.768    -9999      22.81115   0.9775667  1.018907   -9999      -9999      0.1423461 
810.9204   -9999      19.52128   0.9449819  1.000104   -9999      -9999      0.105792  
811.0728   -9999      16.54875   0.9244236  0.9912285  -9999      -9999      0.07276391
811.2252   -9999      19.15705   0.916468   0.9873157  -9999      -9999      0.101745  
811.3776   -9999      22.30932   0.918249   0.98526    -9999      -9999      0.1367702 
811.53     -9999      22.64963   0.9263868  0.9853101  -9999      -9999      0.1405514 
811.6824   -9999      22.38639   0.9373204  0.9903821  -9999      -9999      0.1376265 
811.8348   -9999      22.2554    0.9494862  1.00313    -9999      -9999      0.1361711 
811.9872   -9999      18.91208   0.9627883  1.022829   -9999      -9999      0.09902306
812.1396   -9999      15.16841   0.9790211  1.046613   -9999      -9999      0.05742674
812.292    -9999      15.16139   0.9989877  1.071914   -9999      -9999      0.05734881
812.4444   -9999      17.40598   1.022401   1.097909   -9999      -9999      0.08228862
812.5968   -9999      19.9275    1.047006   1.122814   -9999      -9999      0.1103055 
812.7492   -9999      20.32912   1.075374   1.145179   -9999      -9999      0.114768  
812.9016   -9999      18.75456   1.10593    1.166568   -9999      -9999      0.09727287
813.054    -9999      17.32598   1.137737   1.192685   -9999      -9999      0.08139975
813.2064   -9999      17.28165   1.167259   1.229405   -9999      -9999      0.08090723
813.3588   -9999      18.74814   1.192974   1.277738   -9999      -9999      0.09720152
813.5112   -9999      18.25788   1.212316   1.330721   -9999      -9999      0.09175424
813.6636   -9999      17.05362   1.228577   1.375456   -9999      -9999      0.07837357
813.816    -9999      17.43913   1.24084    1.399194   -9999      -9999      0.08265696
813.9684   -9999      18.93678   1.252477   1.39518    -9999      -9999      0.0992975 
814.1208   -9999      19.99009   1.264906   1.369591   -9999      -9999      0.111001  
814.2732   -9999      17.07961   1.281507   1.342623   -9999      -9999      0.07866232
814.4256   -9999      15.28239   1.295807   1.338788   -9999      -9999      0.05869321
814.578    -9999      19.25667   1.310343   1.375289   -9999      -9999      0.1028519 
814.7304   -9999      24.38889   1.337462   1.453311   -9999      -9999      0.1598765 
814.8828   -9999      27.19016   1.39006    1.554461   -9999      -9999      0.1910017 
815.0352   -9999      29.27124   1.478289   1.653109   -9999      -9999      0.2141249 
815.1876   -9999      31.71287   1.608317   1.736842   -9999      -9999      0.2412542 
815.34     -9999      36.64477   1.739278   1.817338   -9999      -9999      0.296053  
815.4924   -9999      47.776     1.857179   1.910303   -9999      -9999      0.4197334 
815.6448   -9999      66.93816   1.939961   2.017121   -9999      -9999      0.6326463 
815.7972   -9999      84.28373   1.965827   2.117752   -9999      -9999      0.8253748 
815.9496   -9999      88.44251   1.922867   2.176537   -9999      -9999      0.8715835 
816.102    -9999      83.55309   1.818107   2.158734   -9999      -9999      0.8172565 
816.2544   -9999      74.006     1.681389   2.047572   -9999      -9999      0.7111778 
816.4068   -9999      59.20634   1.551672   1.857933   -9999      -9999      0.5467371 
816.5592   -9999      43.68421   1.435974   1.638227   -9999      -9999      0.374269  
816.7116   -9999      35.10819   1.342404   1.440519   -9999      -9999      0.2789799 
816.864    -9999      32.36205   1.266408   1.297204   -9999      -9999      0.2484672 
817.0164   -9999      31.45231   1.202129   1.214571   -9999      -9999      0.238359  
817.1688   -9999      28.3181    1.147536   1.18345    -9999      -9999      0.2035345 
817.3212   -9999      24.98885   1.109931   1.18431    -9999      -9999      0.1665428 
817.4736   -9999      25.53199   1.089727   1.192848   -9999      -9999      0.1725777 
817.626    -9999      25.9818    1.084376   1.189804   -9999      -9999      0.1775756 
817.7784   -9999      24.34758   1.08363    1.17162    -9999      -9999      0.1594176 
817.9308   -9999      24.29913   1.079379   1.147873   -9999      -9999      0.1588792 
818.0832   -9999      25.79084   1.07092    1.128286   -9999      -9999      0.1754538 
818.2356   -9999      25.05432   1.063833   1.115944   -9999      -9999      0.1672702 
818.388    -9999      22.64522   1.062324   1.110801   -9999      -9999      0.1405024 
818.5404   -9999      23.1359    1.069938   1.115695   -9999      -9999      0.1459545 
818.6928   -9999      24.02556   1.087865   1.136254   -9999      -9999      0.1558395 
818.8452   -9999      23.07443   1.115895   1.175795   -9999      -9999      0.1452714 
818.9976   -9999      22.23851   1.162022   1.231746   -9999      -9999      0.1359835 
819.15     -9999      22.66274   1.228828   1.297108   -9999      -9999      0.1406971 
819.3024   -9999      23.08811   1.317612   1.367525   -9999      -9999      0.1454234 
819.4548   -9999      23.49361   1.421883   1.445719   -9999      -9999      0.149929  
819.6072   -9999      23.61922   1.529402   1.540648   -9999      -9999      0.1513246 
819.7596   -9999      22.21127   1.606633   1.657393   -9999      -9999      0.1356808 
819.912    -9999      20.53884   1.652297   1.779296   -9999      -9999      0.1170982 
820.0644   -9999      21.02555   1.672891   1.860564   -9999      -9999      0.1225062 
820.2168   -9999      24.36504   1.6863     1.853304   -9999      -9999      0.1596115 
820.3692   -9999      31.09703   1.695345   1.765836   -9999      -9999      0.2344114 
820.5216   -9999      46.19878   1.695927   1.661068   -9999      -9999      0.4022087 
820.674    -9999      64.37762   1.678394   1.593511   -9999      -9999      0.6041957 
820.8264   -9999      74.1007    1.660305   1.58387    -9999      -9999      0.71223   
820.9788   -9999      76.37739   1.669894   1.627692   -9999      -9999      0.7375265 
821.1312   -9999      74.68451   1.720443   1.714129   -9999      -9999      0.7187167 
821.2836   -9999      74.16165   1.815511   1.838755   -9999      -9999      0.7129073 
821.436    -9999      71.16769   1.939777   1.995089   -9999      -9999      0.6796409 
821.5884   -9999      65.56495   2.082634   2.163383   -9999      -9999      0.6173883 
821.7408   -9999      64.00417   2.237339   2.311928   -9999      -9999      0.6000464 
821.8932   -9999      67.1618    2.382172   2.419011   -9999      -9999      0.6351312 
