~Version
 VERS              .         3.0                           : CWLS LOG ASCII STANDARD - VERSION 3.0
 WRAP              .         NO                            : ONE LINE PER DEPTH STEP
 DLM               .         SPACE                         : DELIMITING CHARACTER(SPACE TAB OR COMMA)
~Well Information
#_______________________________________________________________________________
#
#PARAMETER_NAME    .UNIT     VALUE                         : DESCRIPTION
#_______________________________________________________________________________
STRT               .m        3.81                          : First reference value
STOP               .m        2245.7664                     : Last reference value
STEP               .m        0.1524                        : Step increment
NULL               .         -9999                         : Missing value
COMP               .                                       : Company
WELL               .         1-ALV-2-BA                    : Well name
FLD                .         REC-T-155                     : Field
LOC                .                                       : Location
SRVC               .                                       : Service Company
CTRY               .                                       : Country
DATE               .                                       : Service Date
X                  .                                       : X or East-West coordinate
Y                  .                                       : Y or North South coordinate
GDAT               .                                       : Geodetic Datum
HZCS               .                                       : Horizontal Co-ordinate System
COMPANY            .         ALVORADA                      : 
CREATION-TIME      .         2021/8/18 13_56               : 
FIELD-NAME         .         REC-T-155                     : 
FILE-ID            .         ALV2FM.001                    : 
FILE-NUMBER        .         2                             : 
FILE-SET-NAME      .         LIS-TO-DLIS-CONVERSION        : 
FILE-SET-NUMBER    .         8788                          : 
FILE-TYPE          .         OAKSFT                        : 
NAME-SPACE-NAME    .                                       : 
NAME-SPACE-VERSION .         0                             : 
PRODUCER-CODE      .         440                           : 
PRODUCER-NAME      .         Schlumberger                  : 
PRODUCT            .         DLIS/U                        : 
PROGRAMS           .         LIS-TO-DLIS                   : 
VERSION            .         0.1                           : 
WELL-ID            .         20240024159                   : 
WELL-NAME          .         1-ALV-2-BA                    : 
~Parameter Information Block
#_______________________________________________________________________________
#
#PARAMETER_NAME    .UNIT     VALUE                         : DESCRIPTION
#_______________________________________________________________________________
SET                .         Merged_Set                    : 
TLFamily_DENS      .         Bulk Density                  : 
TLFamily_GR        .         Gamma Ray                     : 
TLFamily_ILD       .         Deep Resistivity              : 
TLFamily_ILM       .         Medium Resistivity            : 
TLFamily_MD        .         Measured Depth                : 
TLFamily_Neu       .         Neutron Porosity              : 
TLFamily_Porosity-Density .         Porosity                      : 
TLFamily_VSH_GR    .         Shale Volume                  : 
~Curve Information
#_______________________________________________________________________________
#
#LOGNAME           .UNIT     LOG_ID                        : DESCRIPTION
#_______________________________________________________________________________
MD                 .m                                      :  {F}
DENS               .g/cm3                                  :  {F}
GR                 .gAPI                                   :  {F}
ILD                .ohm.m                                  :  {F}
ILM                .ohm.m                                  :  {F}
Neu                .m3/m3                                  :  {F}
Porosity-Density   .v/v                                    :  {F}
VSH_GR             .v/v                                    :  {F}
~Ascii
# ...
1751.2284  2.474552   58.68444   2.034418   2.043934   14.30567   0.1063321  0.5409382 
1751.3808  2.480583   57.59315   2.018619   2.030287   14.302     0.102677   0.5288128 
1751.5332  2.486061   56.26093   2.007596   2.025455   14.46831   0.09935696 0.5140104 
1751.6856  2.485233   55.23798   2.004167   2.030482   14.7807    0.0998588  0.5026442 
1751.838   2.47944    55.56287   2.009372   2.046116   14.91051   0.1033698  0.5062541 
1751.9904  2.47356    56.34061   2.02345    2.073236   14.81668   0.1069336  0.5148957 
1752.1428  2.471959   56.80063   2.046494   2.112508   14.60727   0.1079038  0.520007  
1752.2952  2.473613   58.1759    2.075688   2.162861   14.45167   0.1069011  0.5352878 
1752.4476  2.47603    58.81171   2.108633   2.218832   14.76467   0.1054362  0.5423523 
1752.6     2.481      57.92686   2.143312   2.270462   15.27556   0.1024243  0.5325207 
1752.7524  2.483916   57.26319   2.173018   2.306527   15.58031   0.1006573  0.5251465 
1752.9048  2.475941   56.62219   2.192198   2.320118   15.78579   0.1054902  0.5180243 
1753.0572  2.463081   55.56726   2.199705   2.311722   15.62922   0.1132844  0.5063028 
1753.2096  2.456742   53.67897   2.195602   2.28734    15.39905   0.1171262  0.4853218 
1753.362   2.455877   51.70995   2.180239   2.253642   15.74826   0.1176506  0.4634439 
1753.5144  2.456392   51.81388   2.15639    2.21552    16.12879   0.1173385  0.4645986 
1753.6668  2.461444   51.8959    2.128857   2.177835   16.10713   0.1142765  0.46551   
1753.8192  2.471902   49.11088   2.101892   2.146051   15.94158   0.1079383  0.4345654 
1753.9716  2.480759   46.59264   2.077706   2.124622   15.36314   0.1025701  0.4065849 
1754.124   2.48223    48.19899   2.060308   2.114393   14.61144   0.101679   0.4244333 
1754.2764  2.478174   51.82175   2.053262   2.112656   14.7229    0.104137   0.4646861 
1754.4288  2.4749     53.69613   2.054778   2.115412   15.53124   0.1061215  0.4855125 
1754.5812  2.477119   54.14473   2.060565   2.11941    16.25679   0.1047766  0.4904971 
1754.7336  2.48202    53.26066   2.066934   2.122762   16.44141   0.1018062  0.480674  
1754.886   2.484932   52.35992   2.071114   2.123853   15.90437   0.1000414  0.4706658 
1755.0384  2.485176   53.79787   2.072039   2.120786   15.10213   0.09989362 0.486643  
1755.1908  2.482218   55.08659   2.070615   2.11289    14.88265   0.1016862  0.5009621 
1755.3432  2.47931    55.71757   2.067702   2.102085   15.23068   0.1034488  0.507973  
1755.4956  2.479877   57.39923   2.063863   2.092195   15.27386   0.1031046  0.5266581 
1755.648   2.479976   58.98848   2.059993   2.08659    14.85493   0.1030449  0.5443164 
1755.8004  2.479865   60.03028   2.056688   2.086899   14.72574   0.1031123  0.555892  
1755.9528  2.480241   60.17558   2.053686   2.092491   15.35578   0.1028841  0.5575065 
1756.1052  2.476292   57.18612   2.048976   2.100334   15.92859   0.1052777  0.5242902 
1756.2576  2.470286   51.5605    2.042433   2.105411   15.93143   0.1089178  0.4617833 
1756.41    2.472212   48.06408   2.036401   2.102674   15.82122   0.1077502  0.4229342 
1756.5624  2.485694   49.46197   2.033312   2.090932   15.55919   0.0995792  0.4384663 
1756.7148  2.501342   52.49554   2.034714   2.074671   15.15239   0.09009592 0.4721726 
1756.8672  2.505411   53.26281   2.038676   2.060715   14.86023   0.08762966 0.4806978 
1757.0196  2.49577    52.77566   2.041548   2.053055   14.64301   0.0934725  0.4752851 
1757.172   2.483325   53.59571   2.041611   2.050488   14.52815   0.1010155  0.4843968 
1757.3244  2.47844    53.23112   2.037746   2.049018   14.50048   0.1039761  0.4803458 
1757.4768  2.482091   50.19256   2.029454   2.045121   14.30821   0.1017633  0.446584  
1757.6292  2.488665   49.0844    2.015478   2.03648    13.804     0.09777863 0.4342711 
1757.7816  2.493982   50.1372    1.993311   2.020817   13.37528   0.09455651 0.4459688 
1757.934   2.493257   52.46688   1.963883   1.995338   13.29775   0.09499592 0.4718542 
1758.0864  2.485095   56.47034   1.93302    1.958733   13.76958   0.09994275 0.5163371 
1758.2388  2.473534   60.24693   1.907018   1.914227   14.36578   0.1069491  0.5582992 
1758.3912  2.463521   61.04058   1.893287   1.871729   14.39995   0.1130175  0.5671176 
1758.5436  2.460049   59.23232   1.8951     1.845886   14.08752   0.1151216  0.5470257 
1758.696   2.46676    57.21229   1.908715   1.850564   13.9606    0.1110548  0.524581  
1758.8484  2.480812   56.00924   1.929304   1.892512   13.97847   0.102538   0.5112138 
1759.0008  2.496844   56.60231   1.953245   1.965394   14.18987   0.09282169 0.5178035 
1759.1532  2.512215   58.21186   1.976029   2.046367   14.70182   0.08350617 0.5356873 
1759.3056  2.52367    58.8895    1.994956   2.103676   15.13882   0.07656343 0.5432167 
1759.458   2.525596   59.44551   2.009902   2.114976   15.08869   0.07539662 0.5493945 
1759.6104  2.518368   60.09124   2.019138   2.083801   14.57253   0.07977717 0.5565694 
1759.7628  2.511794   59.20372   2.021659   2.034345   14.11977   0.0837615  0.546708  
1759.9152  2.509813   57.57268   2.019856   1.992898   14.18856   0.08496168 0.5285854 
1760.0676  2.504051   57.81214   2.016128   1.97453    14.50027   0.08845387 0.5312459 
1760.22    2.492024   59.26929   2.015493   1.981823   14.68855   0.09574283 0.5474365 
1760.3724  2.48036    58.43111   2.022755   2.009749   15.15592   0.1028122  0.5381234 
1760.5248  2.471746   55.30841   2.039493   2.050844   15.82934   0.1080327  0.5034267 
1760.6772  2.4656     52.93309   2.06532    2.098351   15.85933   0.1117579  0.4770343 
1760.8296  2.465531   51.70374   2.098435   2.147438   15.57048   0.1117997  0.4633749 
1760.982   2.473031   53.27789   2.13661    2.19451    15.31137   0.107254   0.4808654 
1761.1344  2.481201   57.38944   2.176252   2.236298   15.23768   0.1023024  0.5265493 
1761.2868  2.482541   58.98917   2.213247   2.268445   15.49053   0.1014902  0.5443242 
1761.4392  2.476723   58.1665    2.244487   2.286926   15.64381   0.1050166  0.5351834 
1761.5916  2.470584   56.68906   2.272238   2.293697   15.64133   0.1087369  0.5187674 
1761.744   2.476788   55.68637   2.299404   2.299714   15.77971   0.1049768  0.5076264 
1761.8964  2.49738    57.46817   2.319209   2.319496   15.89987   0.09249686 0.5274241 
1762.0488  2.518912   60.09615   2.324594   2.358837   15.50936   0.07944728 0.5566238 
1762.2012  2.529923   62.28407   2.318852   2.406965   15.15948   0.07277402 0.5809341 
1762.3536  2.52601    65.77267   2.310398   2.440379   15.89329   0.07514548 0.6196964 
1762.506   2.508871   67.41727   2.302578   2.439255   17.41648   0.08553259 0.6379697 
1762.6584  2.489982   64.23533   2.293256   2.402459   17.69283   0.09698058 0.6026148 
1762.8108  2.479757   58.93369   2.280279   2.346009   16.0597    0.1031779  0.5437076 
1762.9632  2.478879   54.48933   2.262372   2.291315   14.26319   0.1037096  0.4943259 
1763.1156  2.483473   51.60598   2.241365   2.254018   13.63137   0.1009256  0.4622886 
1763.268   2.48836    50.32179   2.222345   2.23937    14.02096   0.09796388 0.4480199 
1763.4204  2.49006    51.22079   2.207819   2.242964   15.11854   0.09693333 0.4580088 
1763.5728  2.491195   52.7312    2.198578   2.254837   16.23489   0.09624524 0.4747912 
1763.7252  2.491375   53.13431   2.195863   2.265155   16.20695   0.09613615 0.4792701 
1763.8776  2.485207   53.39474   2.198597   2.267932   15.61662   0.09987484 0.4821638 
1764.03    2.476034   54.57818   2.203275   2.261862   15.15958   0.1054337  0.4953131 
1764.1824  2.473861   54.06548   2.205873   2.249027   14.56278   0.106751   0.4896164 
1764.3348  2.482024   50.72264   2.202804   2.232641   14.1619    0.1018037  0.4524738 
1764.4872  2.492298   48.28376   2.191016   2.21401    13.958     0.09557694 0.4253752 
1764.6396  2.495984   48.86508   2.173399   2.191913   13.78596   0.09334318 0.4318343 
1764.792   2.494234   50.41722   2.155898   2.165774   13.86585   0.09440364 0.4490803 
1764.9444  2.492399   51.48423   2.141028   2.139563   14.30001   0.09551568 0.4609359 
