~Version
 VERS              .         3.0                           : CWLS LOG ASCII STANDARD - VERSION 3.0
 WRAP              .         NO                            : ONE LINE PER DEPTH STEP
 DLM               .         SPACE                         : DELIMITING CHARACTER(SPACE TAB OR COMMA)
~Well Information
#_______________________________________________________________________________
#
#PARAMETER_NAME    .UNIT     VALUE                         : DESCRIPTION
#_______________________________________________________________________________
STRT               .m        3.81                          : First reference value
STOP               .m        2245.7664                     : Last reference value
STEP               .m        0.1524                        : Step increment
NULL               .         -9999                         : Missing value
COMP               .                                       : Company
WELL               .         1-ALV-2-BA                    : Well name
FLD                .         REC-T-155                     : Field
LOC                .                                       : Location
SRVC               .                                       : Service Company
CTRY               .                                       : Country
DATE               .                                       : Service Date
X                  .                                       : X or East-West coordinate
Y                  .                                       : Y or North South coordinate
GDAT               .                                       : Geodetic Datum
HZCS               .                                       : Horizontal Co-ordinate System
COMPANY            .         ALVORADA                      : 
CREATION-TIME      .         2021/8/18 13_56               : 
FIELD-NAME         .         REC-T-155                     : 
FILE-ID            .         ALV2FM.001                    : 
FILE-NUMBER        .         2                             : 
FILE-SET-NAME      .         LIS-TO-DLIS-CONVERSION        : 
FILE-SET-NUMBER    .         8788                          : 
FILE-TYPE          .         OAKSFT                        : 
NAME-SPACE-NAME    .                                       : 
NAME-SPACE-VERSION .         0                             : 
PRODUCER-CODE      .         440                           : 
PRODUCER-NAME      .         Schlumberger                  : 
PRODUCT            .         DLIS/U                        : 
PROGRAMS           .         LIS-TO-DLIS                   : 
VERSION            .         0.1                           : 
WELL-ID            .         20240024159                   : 
WELL-NAME          .         1-ALV-2-BA                    : 
~Parameter Information Block
#_______________________________________________________________________________
#
#PARAMETER_NAME    .UNIT     VALUE                         : DESCRIPTION
#_______________________________________________________________________________
SET                .         Merged_Set                    : 
TLFamily_DENS      .         Bulk Density                  : 
TLFamily_GR        .         Gamma Ray                     : 
TLFamily_ILD       .         Deep Resistivity              : 
TLFamily_ILM       .         Medium Resistivity            : 
TLFamily_MD        .         Measured Depth                : 
TLFamily_Neu       .         Neutron Porosity              : 
TLFamily_Porosity-Density .         Porosity                      : 
TLFamily_VSH_GR    .         Shale Volume                  : 
~Curve Information
#_______________________________________________________________________________
#
#LOGNAME           .UNIT     LOG_ID                        : DESCRIPTION
#_______________________________________________________________________________
MD                 .m                                      :  {F}
DENS               .g/cm3                                  :  {F}
GR                 .gAPI                                   :  {F}
ILD                .ohm.m                                  :  {F}
ILM                .ohm.m                                  :  {F}
Neu                .m3/m3                                  :  {F}
Porosity-Density   .v/v                                    :  {F}
VSH_GR             .v/v                                    :  {F}
~Ascii
# ...
1876.044   2.615539   80.57227   2.123665   2.163615   29.39894   0.02088532 0.7841364 
1876.1964  2.605487   76.27804   2.097339   2.125931   28.92993   0.02697786 0.7364227 
1876.3488  2.600965   78.43073   2.096383   2.099322   27.77527   0.02971808 0.7603415 
1876.5012  2.596803   80.49065   2.11747    2.103846   28.0416    0.03224055 0.7832295 
1876.6536  2.594087   79.85888   2.157093   2.151021   29.95087   0.03388694 0.7762098 
1876.806   2.592145   80.27735   2.213681   2.243741   31.41791   0.03506342 0.7808595 
1876.9584  2.58762    82.86396   2.287092   2.377855   32.4992    0.03780625 0.8095996 
1877.1108  2.584424   88.1802    2.381691   2.538548   32.97837   0.03974307 0.8686689 
1877.2632  2.584175   92.52647   2.50299    2.70193    32.74935   0.03989378 0.9169607 
1877.4156  2.58294    89.2298    2.640972   2.841939   32.40694   0.04064227 0.8803312 
1877.568   2.583165   81.60226   2.780697   2.950715   31.39459   0.0405063  0.7955807 
1877.7204  2.591281   77.92738   2.903216   3.039917   30.537     0.03558722 0.7547486 
1877.8728  2.604295   78.31301   2.993875   3.123108   30.4339    0.02770034 0.7590334 
1878.0252  2.613157   78.50095   3.049347   3.195588   30.1717    0.02232913 0.7611217 
1878.1776  2.617744   78.55029   3.081929   3.242605   29.27217   0.01954888 0.7616698 
1878.33    2.620999   78.97918   3.102061   3.257733   28.2514    0.01757665 0.7664353 
1878.4824  2.620116   78.87827   3.104727   3.247551   28.21453   0.01811143 0.7653142 
1878.6348  2.616242   79.08462   3.079489   3.216766   28.93436   0.0204592  0.7676069 
1878.7872  2.616983   77.15189   3.033265   3.159606   29.1248    0.02001011 0.7461321 
1878.9396  2.621052   72.99812   2.981167   3.071189   29.33669   0.01754428 0.6999791 
1879.092   2.619387   72.59838   2.925651   2.963069   28.95924   0.0185533  0.6955376 
1879.2444  2.611867   77.63935   2.860965   2.857361   27.34874   0.02311085 0.7515483 
1879.3968  2.606064   82.81781   2.783977   2.772644   26.49505   0.02662774 0.8090868 
1879.5492  2.601015   84.64409   2.699864   2.711137   27.46646   0.02968802 0.8293788 
1879.7016  2.594287   86.02072   2.622905   2.663301   28.69035   0.0337657  0.8446747 
1879.854   2.588754   86.84435   2.567004   2.618497   29.44959   0.03711902 0.8538262 
1880.0064  2.585313   85.43583   2.540334   2.575923   30.10847   0.03920411 0.8381759 
1880.1588  2.583532   84.12353   2.539904   2.545495   30.82305   0.04028349 0.8235947 
1880.3112  2.586096   84.87051   2.553906   2.54056    31.59088   0.03872987 0.8318945 
1880.4636  2.58479    85.81444   2.566575   2.565057   31.56359   0.03952142 0.8423827 
1880.616   2.580448   82.92259   2.566805   2.606488   31.00853   0.04215269 0.810251  
1880.7684  2.585144   78.68074   2.555228   2.640402   30.9229    0.03930698 0.7631193 
1880.9208  2.594817   78.64323   2.542735   2.646656   30.98616   0.03344449 0.7627026 
1881.0732  2.60257    81.70175   2.540881   2.624451   30.55364   0.02874576 0.7966861 
1881.2256  2.608525   85.35986   2.552798   2.591995   29.95492   0.02513625 0.8373317 
1881.378   2.610906   89.00554   2.57423    2.574028   29.86701   0.0236936  0.8778393 
1881.5304  2.610496   91.42889   2.600398   2.589445   30.2739    0.02394214 0.9047655 
1881.6828  2.608357   90.75784   2.622245   2.644714   31.09822   0.02523827 0.8973094 
1881.8352  2.603068   86.53641   2.630825   2.726909   32.02094   0.02844362 0.8504045 
1881.9876  2.601096   81.13967   2.62695    2.802407   32.1178    0.02963904 0.7904408 
1882.14    2.606504   75.67916   2.621284   2.831985   31.37547   0.02636115 0.7297685 
1882.2924  2.609895   71.41687   2.625972   2.802203   29.68193   0.02430627 0.6824096 
1882.4448  2.606358   72.23422   2.645147   2.738952   27.45802   0.02644972 0.6914914 
1882.5972  2.603025   76.22786   2.672086   2.686284   26.52611   0.02846992 0.7358651 
1882.7496  2.602871   79.56837   2.694536   2.679206   27.54918   0.02856312 0.7729819 
1882.902   2.605017   81.60934   2.699477   2.728956   29.39575   0.02726266 0.7956593 
1883.0544  2.613498   80.83027   2.6881     2.818251   30.56228   0.02212221 0.787003  
1883.2068  2.63023    77.58197   2.679976   2.906501   29.16166   0.01198176 0.7509108 
1883.3592  2.646254   75.22028   2.701385   2.951547   26.05663   0.002270467 0.7246698 
1883.5116  2.647955   74.42994   2.776331   2.945943   23.6462    0.001239343 0.7158882 
1883.664   2.635634   73.64471   2.904226   2.927822   22.85973   0.008706901 0.7071634 
1883.8164  2.624044   74.03738   3.061289   2.9568     23.74038   0.01573071 0.7115265 
1883.9688  2.620891   78.71175   3.206998   3.078094   25.51797   0.01764182 0.7634639 
1884.1212  2.622808   84.68413   3.294299   3.290853   27.56983   0.01648021 0.8298236 
1884.2736  2.624774   85.33813   3.300143   3.515292   29.15676   0.01528884 0.8370904 
1884.426   2.622624   79.96884   3.244188   3.606732   29.00522   0.01659176 0.7774315 
1884.5784  2.616842   73.9241    3.17138    3.474519   27.58937   0.02009594 0.7102678 
1884.7308  2.610744   73.92995   3.110938   3.184378   26.76995   0.02379128 0.7103328 
1884.8832  2.604677   79.44528   3.053193   2.886691   27.11836   0.02746828 0.7716143 
1885.0356  2.596853   83.20693   2.980344   2.683402   28.04729   0.0322102  0.8134103 
1885.188   2.5862     84.92393   2.893525   2.597036   29.46872   0.03866643 0.8324881 
1885.3404  2.575045   87.29087   2.815988   2.616455   31.16341   0.04542755 0.8587875 
1885.4928  2.571474   87.96445   2.773246   2.718862   31.90192   0.04759181 0.8662716 
1885.6452  2.581179   85.93314   2.779933   2.873535   31.88174   0.04170967 0.8437015 
1885.7976  2.598683   82.70443   2.835767   3.037151   31.41546   0.0311012  0.807827  
1885.95    2.613708   79.08997   2.923776   3.164564   29.73422   0.0219952  0.7676664 
1886.1024  2.619733   76.79863   3.030013   3.230447   27.58278   0.01834378 0.742207  
1886.2548  2.613613   77.91656   3.141302   3.245808   26.34429   0.02205271 0.7546284 
1886.4072  2.595624   79.83426   3.228918   3.244195   26.50696   0.03295523 0.7759362 
1886.5596  2.573876   80.31365   3.270353   3.251427   27.54586   0.04613601 0.7812628 
1886.712   2.558695   80.19834   3.264975   3.270213   28.61911   0.05533623 0.7799816 
1886.8644  2.5578     80.32798   3.224849   3.28712    29.33886   0.05587881 0.781422  
1887.0168  2.572913   81.63314   3.172824   3.289412   29.99956   0.0467192  0.7959238 
1887.1692  2.592246   83.44994   3.131474   3.275613   30.45861   0.03500273 0.8161105 
1887.3216  2.597738   85.62924   3.115807   3.253496   29.46398   0.03167427 0.8403249 
1887.474   2.591442   87.60551   3.138582   3.23625    27.3443    0.03548969 0.8622835 
1887.6264  2.588861   88.36028   3.204448   3.243057   26.39912   0.03705371 0.8706698 
1887.7788  2.593896   87.75509   3.287324   3.293321   26.75952   0.03400254 0.8639454 
1887.9312  2.605585   84.92963   3.333634   3.38349    27.58041   0.02691803 0.8325514 
1888.0836  2.626934   80.63667   3.299103   3.458678   27.86777   0.01397927 0.7848518 
1888.236   2.650163   76.57609   3.187505   3.423746   26.08939   0          0.7397343 
1888.3884  2.660139   73.85605   3.04237    3.227863   22.94999   0          0.7095116 
1888.5408  2.650879   72.50943   2.899742   2.92983    20.97687   0          0.6945492 
1888.6932  2.627185   74.3228    2.765253   2.642175   21.48792   0.01382755 0.7146978 
1888.8456  2.603942   81.60709   2.629402   2.438591   24.42914   0.02791376 0.7956344 
1888.998   2.59558    88.58414   2.492073   2.335964   29.28388   0.0329821  0.8731571 
1889.1504  2.597677   90.69752   2.365187   2.312814   34.15037   0.03171126 0.8966391 
1889.3028  2.600625   91.33701   2.273831   2.33494    35.44978   0.02992428 0.9037446 
1889.4552  2.602392   91.67762   2.237721   2.372201   32.51252   0.02885356 0.9075291 
1889.6076  2.606883   89.23856   2.262248   2.412638   28.69566   0.0261314  0.8804285 
1889.76    2.613904   86.19868   2.337671   2.462271   26.77931   0.02187642 0.846652  
