~Version
 VERS              .         3.0                           : CWLS LOG ASCII STANDARD - VERSION 3.0
 WRAP              .         NO                            : ONE LINE PER DEPTH STEP
 DLM               .         SPACE                         : DELIMITING CHARACTER(SPACE TAB OR COMMA)
~Well Information
#_______________________________________________________________________________
#
#PARAMETER_NAME    .UNIT     VALUE                         : DESCRIPTION
#_______________________________________________________________________________
STRT               .m        3.81                          : First reference value
STOP               .m        2245.7664                     : Last reference value
STEP               .m        0.1524                        : Step increment
NULL               .         -9999                         : Missing value
COMP               .                                       : Company
WELL               .         1-ALV-2-BA                    : Well name
FLD                .         REC-T-155                     : Field
LOC                .                                       : Location
SRVC               .                                       : Service Company
CTRY               .                                       : Country
DATE               .                                       : Service Date
X                  .                                       : X or East-West coordinate
Y                  .                                       : Y or North South coordinate
GDAT               .                                       : Geodetic Datum
HZCS               .                                       : Horizontal Co-ordinate System
COMPANY            .         ALVORADA                      : 
CREATION-TIME      .         2021/8/18 13_56               : 
FIELD-NAME         .         REC-T-155                     : 
FILE-ID            .         ALV2FM.001                    : 
FILE-NUMBER        .         2                             : 
FILE-SET-NAME      .         LIS-TO-DLIS-CONVERSION        : 
FILE-SET-NUMBER    .         8788                          : 
FILE-TYPE          .         OAKSFT                        : 
NAME-SPACE-NAME    .                                       : 
NAME-SPACE-VERSION .         0                             : 
PRODUCER-CODE      .         440                           : 
PRODUCER-NAME      .         Schlumberger                  : 
PRODUCT            .         DLIS/U                        : 
PROGRAMS           .         LIS-TO-DLIS                   : 
VERSION            .         0.1                           : 
WELL-ID            .         20240024159                   : 
WELL-NAME          .         1-ALV-2-BA                    : 
~Parameter Information Block
#_______________________________________________________________________________
#
#PARAMETER_NAME    .UNIT     VALUE                         : DESCRIPTION
#_______________________________________________________________________________
SET                .         Merged_Set                    : 
TLFamily_DENS      .         Bulk Density                  : 
TLFamily_GR        .         Gamma Ray                     : 
TLFamily_ILD       .         Deep Resistivity              : 
TLFamily_ILM       .         Medium Resistivity            : 
TLFamily_MD        .         Measured Depth                : 
TLFamily_Neu       .         Neutron Porosity              : 
TLFamily_Porosity-Density .         Porosity                      : 
TLFamily_VSH_GR    .         Shale Volume                  : 
~Curve Information
#_______________________________________________________________________________
#
#LOGNAME           .UNIT     LOG_ID                        : DESCRIPTION
#_______________________________________________________________________________
MD                 .m                                      :  {F}
DENS               .g/cm3                                  :  {F}
GR                 .gAPI                                   :  {F}
ILD                .ohm.m                                  :  {F}
ILM                .ohm.m                                  :  {F}
Neu                .m3/m3                                  :  {F}
Porosity-Density   .v/v                                    :  {F}
VSH_GR             .v/v                                    :  {F}
~Ascii
# ...
1986.9912  2.598255   73.42107   1.769506   1.981193   33.13934   0.03136071 0.7046785 
1987.1436  2.59471    75.5715    1.864221   2.145659   33.6568    0.03350922 0.7285722 
1987.296   2.590332   77.57132   1.910807   2.186901   33.72107   0.0361626  0.7507924 
1987.4484  2.586016   80.55061   1.914429   2.082927   33.66065   0.03877828 0.7838956 
1987.6008  2.580019   83.79726   1.884201   1.89925    34.42023   0.04241264 0.8199696 
1987.7532  2.572327   81.01838   1.82332    1.718812   35.97094   0.04707437 0.7890931 
1987.9056  2.56936    73.59166   1.742387   1.589007   37.27753   0.04887291 0.706574  
1988.058   2.571433   70.66016   1.651684   1.516731   37.19606   0.04761652 0.6740018 
1988.2104  2.573476   73.04626   1.560956   1.488946   36.87952   0.04637834 0.7005141 
1988.3628  2.576456   75.56679   1.482352   1.484944   37.26659   0.04457213 0.7285199 
1988.5152  2.580211   78.83225   1.427626   1.485599   37.52397   0.04229647 0.7648028 
1988.6676  2.581558   82.88943   1.397659   1.478491   37.54667   0.04147992 0.8098825 
1988.82    2.583388   82.51642   1.385159   1.459001   37.32664   0.04037105 0.805738  
1988.9724  2.588678   78.81143   1.380685   1.428396   36.85851   0.03716483 0.7645715 
1989.1248  2.597174   76.54534   1.374854   1.391773   36.36752   0.03201571 0.7393927 
1989.2772  2.607829   75.09896   1.360721   1.356071   35.99889   0.02555833 0.7233218 
1989.4296  2.617175   73.98179   1.336009   1.324695   35.74912   0.01989422 0.7109088 
1989.582   2.619985   74.36857   1.302874   1.297091   35.56552   0.01819076 0.7152063 
1989.7344  2.61611    75.72581   1.268344   1.271712   35.21679   0.02053925 0.7302867 
1989.8868  2.610799   76.86957   1.240167   1.249676   34.25024   0.02375819 0.7429952 
1990.0392  2.606132   75.67381   1.221742   1.234073   33.41291   0.02658685 0.729709  
1990.1916  2.599251   74.67701   1.212762   1.227607   33.50692   0.03075686 0.7186334 
1990.344   2.58885    76.0004    1.211629   1.230268   33.42227   0.03706065 0.7333378 
1990.4964  2.580776   75.71581   1.216535   1.23972    33.17176   0.04195415 0.7301756 
1990.6488  2.58445    73.38002   1.225105   1.252681   33.17152   0.03972747 0.7042224 
1990.8012  2.597479   72.55941   1.236421   1.266442   33.21095   0.03183076 0.6951045 
1990.9536  2.606572   73.4219    1.250783   1.279408   33.79575   0.02632011 0.7046878 
1991.106   2.60655    73.10912   1.268729   1.292071   34.49857   0.0263334  0.7012125 
1991.2584  2.60137    72.20975   1.290371   1.306954   34.5112    0.02947287 0.6912195 
1991.4108  2.597477   72.03029   1.314499   1.327827   34.19674   0.03183234 0.6892254 
1991.5632  2.600047   71.44771   1.338128   1.356737   33.4961    0.03027468 0.6827523 
1991.7156  2.606146   69.94935   1.360274   1.392087   32.8437    0.02657832 0.6661039 
1991.868   2.607475   69.13569   1.383359   1.428025   32.77123   0.0257729  0.6570632 
1992.0204  2.606315   71.69168   1.411656   1.459651   32.6121    0.02647602 0.6854631 
1992.1728  2.610146   75.57376   1.446567   1.488181   32.47112   0.02415382 0.7285973 
1992.3252  2.617415   75.87296   1.485807   1.521337   32.93724   0.01974828 0.7319217 
1992.4776  2.620212   73.50455   1.524518   1.565651   33.7828    0.0180532  0.7056062 
1992.63    2.617242   71.99315   1.556529   1.619738   35.0141    0.01985347 0.6888128 
1992.7824  2.612134   72.50681   1.579296   1.671883   36.48967   0.02294945 0.6945201 
1992.9348  2.605813   73.67298   1.595006   1.707321   37.1591    0.02678004 0.7074776 
1993.0872  2.595572   72.25294   1.605072   1.719931   36.8233    0.03298644 0.6916994 
1993.2396  2.583919   69.13148   1.608296   1.715011   37.15735   0.04004926 0.6570165 
1993.392   2.573854   67.53156   1.603702   1.704041   38.3369    0.04614902 0.6392395 
1993.5444  2.559958   65.1301    1.595272   1.694922   38.53309   0.05457069 0.6125566 
1993.6968  2.541592   60.9643    1.593328   1.689818   38.08993   0.06570166 0.56627   
1993.8492  2.532447   60.08445   1.607617   1.692785   37.98024   0.07124423 0.5564939 
1994.0016  2.540737   63.47059   1.639669   1.716401   38.01839   0.06622025 0.5941177 
1994.154   2.558445   66.57429   1.688485   1.78014    38.5936    0.05548795 0.6286032 
1994.3064  2.572883   68.64517   1.754693   1.902596   38.47233   0.04673784 0.651613  
1994.4588  2.580763   72.04308   1.841639   2.090497   36.67217   0.04196196 0.6893676 
1994.6112  2.587117   76.37556   1.964708   2.333317   34.58865   0.0381107  0.7375062 
1994.7636  2.590995   78.46439   2.140607   2.6125     33.12714   0.03576062 0.7607155 
1994.916   2.588333   76.59251   2.364891   2.924908   31.58477   0.03737406 0.7399168 
1995.0684  2.584374   73.17103   2.608489   3.291366   29.87703   0.03977356 0.7019003 
1995.2208  2.5843     71.45397   2.80966    3.699487   29.45351   0.03981807 0.6828219 
1995.3732  2.585976   72.07996   2.929682   4.040471   29.96067   0.03880255 0.6897774 
1995.5256  2.5886     71.89862   2.996835   4.128506   29.97548   0.03721208 0.6877624 
1995.678   2.590404   68.91067   3.053013   3.885116   29.78954   0.03611882 0.654563  
1995.8304  2.588348   66.21095   3.093514   3.446223   30.23375   0.03736496 0.6245661 
1995.9828  2.588265   66.5227    3.070624   3.018576   30.39866   0.0374151  0.6280299 
1996.1352  2.593017   67.5364    2.935429   2.718249   29.30213   0.03453543 0.6392933 
1996.2876  2.594128   66.29161   2.69184    2.546891   28.9314    0.03386165 0.6254624 
1996.44    2.58542    65.13238   2.396807   2.435436   30.63423   0.03913951 0.612582  
1996.5924  2.569415   69.0138    2.116112   2.288986   32.75021   0.04883954 0.6557089 
1996.7448  2.556689   76.02261   1.894041   2.064033   33.5708    0.05655202 0.7335846 
1996.8972  2.553653   78.72905   1.731663   1.803943   32.98751   0.05839217 0.7636561 
1997.0496  2.55326    75.8452    1.604705   1.574797   32.11941   0.05863059 0.7316133 
1997.202   2.551553   70.65697   1.490397   1.409496   32.80497   0.05966518 0.6739664 
1997.3544  2.554543   66.35593   1.380018   1.303047   34.80313   0.05785248 0.6261771 
1997.5068  2.563675   65.74647   1.285797   1.238292   35.53048   0.05231799 0.6194052 
1997.6592  2.570306   67.33748   1.217662   1.20056    34.32069   0.04829941 0.6370831 
1997.8116  2.567441   66.99764   1.178718   1.184077   32.96238   0.05003596 0.6333072 
1997.964   2.561393   65.29948   1.165876   1.187747   33.05863   0.05370096 0.6144387 
1998.1164  2.562021   64.75948   1.173336   1.210315   33.95686   0.05332065 0.6084386 
1998.2688  2.566507   64.5965    1.196105   1.247133   34.40511   0.05060167 0.6066278 
1998.4212  2.568824   65.38557   1.230644   1.290456   34.2203    0.04919789 0.6153952 
1998.5736  2.570087   68.6673    1.274089   1.333241   33.64193   0.04843235 0.6518589 
1998.726   2.571188   71.86732   1.322279   1.371839   33.52198   0.04776506 0.6874146 
1998.8784  2.573795   70.81177   1.365089   1.404041   34.09892   0.04618471 0.6756863 
1999.0308  2.584116   67.55582   1.393109   1.426123   34.25173   0.03992962 0.6395091 
1999.1832  2.601989   66.10661   1.404618   1.432512   33.39425   0.02909761 0.6234068 
1999.3356  2.617372   64.58642   1.403488   1.421696   32.06584   0.01977444 0.6065158 
1999.488   2.621685   63.00665   1.393668   1.399455   30.84077   0.01716065 0.5889628 
1999.6404  2.615852   63.79232   1.37747    1.374496   30.88022   0.02069603 0.5976924 
1999.7928  2.606156   65.9593    1.356446   1.353208   32.41673   0.02657197 0.62177   
1999.9452  2.598217   68.0426    1.331905   1.337563   33.5246    0.03138369 0.6449178 
2000.0976  2.59581    69.04395   1.306644   1.326244   32.71914   0.03284223 0.6560438 
2000.25    2.595982   68.20578   1.28588    1.31675    31.67924   0.03273834 0.6467309 
2000.4024  2.592102   67.29891   1.274038   1.308147   32.28262   0.03508972 0.6366546 
2000.5548  2.583802   67.31073   1.271422   1.302087   33.34762   0.04011992 0.6367859 
2000.7072  2.577811   66.21005   1.276008   1.302169   33.42126   0.04375111 0.6245561 
