~Version
 VERS              .         3.0                           : CWLS LOG ASCII STANDARD - VERSION 3.0
 WRAP              .         NO                            : ONE LINE PER DEPTH STEP
 DLM               .         SPACE                         : DELIMITING CHARACTER(SPACE TAB OR COMMA)
~Well Information
#_______________________________________________________________________________
#
#PARAMETER_NAME    .UNIT     VALUE                         : DESCRIPTION
#_______________________________________________________________________________
STRT               .m        3.81                          : First reference value
STOP               .m        2245.7664                     : Last reference value
STEP               .m        0.1524                        : Step increment
NULL               .         -9999                         : Missing value
COMP               .                                       : Company
WELL               .         1-ALV-2-BA                    : Well name
FLD                .         REC-T-155                     : Field
LOC                .                                       : Location
SRVC               .                                       : Service Company
CTRY               .                                       : Country
DATE               .                                       : Service Date
X                  .                                       : X or East-West coordinate
Y                  .                                       : Y or North South coordinate
GDAT               .                                       : Geodetic Datum
HZCS               .                                       : Horizontal Co-ordinate System
COMPANY            .         ALVORADA                      : 
CREATION-TIME      .         2021/8/18 13_56               : 
FIELD-NAME         .         REC-T-155                     : 
FILE-ID            .         ALV2FM.001                    : 
FILE-NUMBER        .         2                             : 
FILE-SET-NAME      .         LIS-TO-DLIS-CONVERSION        : 
FILE-SET-NUMBER    .         8788                          : 
FILE-TYPE          .         OAKSFT                        : 
NAME-SPACE-NAME    .                                       : 
NAME-SPACE-VERSION .         0                             : 
PRODUCER-CODE      .         440                           : 
PRODUCER-NAME      .         Schlumberger                  : 
PRODUCT            .         DLIS/U                        : 
PROGRAMS           .         LIS-TO-DLIS                   : 
VERSION            .         0.1                           : 
WELL-ID            .         20240024159                   : 
WELL-NAME          .         1-ALV-2-BA                    : 
~Parameter Information Block
#_______________________________________________________________________________
#
#PARAMETER_NAME    .UNIT     VALUE                         : DESCRIPTION
#_______________________________________________________________________________
SET                .         Merged_Set                    : 
TLFamily_DENS      .         Bulk Density                  : 
TLFamily_GR        .         Gamma Ray                     : 
TLFamily_ILD       .         Deep Resistivity              : 
TLFamily_ILM       .         Medium Resistivity            : 
TLFamily_MD        .         Measured Depth                : 
TLFamily_Neu       .         Neutron Porosity              : 
TLFamily_Porosity-Density .         Porosity                      : 
TLFamily_VSH_GR    .         Shale Volume                  : 
~Curve Information
#_______________________________________________________________________________
#
#LOGNAME           .UNIT     LOG_ID                        : DESCRIPTION
#_______________________________________________________________________________
MD                 .m                                      :  {F}
DENS               .g/cm3                                  :  {F}
GR                 .gAPI                                   :  {F}
ILD                .ohm.m                                  :  {F}
ILM                .ohm.m                                  :  {F}
Neu                .m3/m3                                  :  {F}
Porosity-Density   .v/v                                    :  {F}
VSH_GR             .v/v                                    :  {F}
~Ascii
# ...
1293.5712  2.533244   81.07215   1.999161   2.101747   38.25944   0.07076104 0.7896906 
1293.7236  2.526253   80.96062   2.012255   2.101789   37.42389   0.07499854 0.7884513 
1293.876   2.525857   81.89143   1.991178   2.040347   36.44215   0.07523797 0.7987937 
1294.0284  2.532014   83.34758   1.934186   1.929838   35.72065   0.07150693 0.8149731 
1294.1808  2.536263   85.25331   1.850977   1.802116   35.61103   0.06893172 0.8361479 
1294.3332  2.534179   86.73223   1.761235   1.688621   35.51073   0.07019433 0.8525804 
1294.4856  2.52686    85.99162   1.682773   1.606399   35.62232   0.07463022 0.8443513 
1294.638   2.51827    82.79388   1.623122   1.5586     36.34166   0.0798367  0.808821  
1294.7904  2.509124   80.10692   1.581547   1.53758    37.29411   0.08537942 0.7789658 
1294.9428  2.498068   78.54882   1.554219   1.53071    38.62029   0.09207985 0.7616535 
1295.0952  2.488551   79.54498   1.534573   1.525772   39.23741   0.09784813 0.7727219 
1295.2476  2.483998   84.22337   1.516611   1.514213   38.11386   0.1006074  0.8247041 
1295.4     2.485073   88.08702   1.498602   1.492413   36.97916   0.09995561 0.8676336 
1295.5524  2.490291   88.8207    1.480673   1.461574   36.60602   0.09679317 0.8757856 
1295.7048  2.493351   89.47326   1.46427    1.427216   36.55393   0.0949387  0.8830362 
1295.8572  2.491825   89.10841   1.450582   1.396949   36.043     0.09586363 0.8789824 
1296.0096  2.492942   86.67444   1.438044   1.377252   35.77686   0.09518681 0.8519382 
1296.162   2.500455   84.81026   1.42419    1.369834   36.45543   0.0906333  0.8312252 
1296.3144  2.509467   84.4845    1.411524   1.371802   36.95171   0.08517164 0.8276055 
1296.4668  2.515769   87.27646   1.406394   1.379901   37.18493   0.08135203 0.8586273 
1296.6192  2.519992   90.48601   1.415508   1.395744   36.41032   0.07879286 0.894289  
1296.7716  2.525116   89.09899   1.442892   1.42751    35.06339   0.07568706 0.8788777 
1296.924   2.529699   85.46972   1.48971    1.485834   34.77462   0.07290999 0.8385524 
1297.0764  2.529439   84.19129   1.552163   1.575973   34.92973   0.07306749 0.8243477 
1297.2288  2.52581    86.37072   1.624016   1.692294   35.19633   0.07526672 0.8485636 
1297.3812  2.523631   88.34834   1.697562   1.815795   35.33835   0.07658713 0.870537  
1297.5336  2.520343   87.11169   1.768816   1.921078   35.2874    0.07858016 0.8567965 
1297.686   2.509163   83.18023   1.840256   1.99064    35.96346   0.08535601 0.8131136 
1297.8384  2.489912   78.29483   1.909896   2.02432    36.47713   0.09702335 0.7588314 
1297.9908  2.471959   77.80943   1.970062   2.033852   36.20321   0.1079035  0.7534381 
1298.1432  2.463833   83.73019   2.007574   2.032029   36.38769   0.1128285  0.8192244 
1298.2956  2.460935   88.60746   2.006769   2.024625   37.24362   0.1145847  0.8734162 
1298.448   2.455615   87.13305   1.966906   2.008671   37.81886   0.1178091  0.8570338 
1298.6004  2.454057   85.3072    1.904574   1.974884   38.39656   0.1187535  0.8367466 
1298.7528  2.464438   87.53474   1.844171   1.91659    38.63882   0.1124619  0.861497  
1298.9052  2.482157   88.53755   1.803784   1.841991   36.65235   0.1017228  0.8726395 
1299.0576  2.498123   85.1254    1.785626   1.774857   34.26622   0.09204647 0.8347266 
1299.21    2.508565   81.30291   1.779356   1.737974   33.71869   0.08571841 0.7922546 
1299.3624  2.515033   80.84965   1.768927   1.736297   33.92736   0.08179823 0.7872183 
1299.5148  2.521309   83.77475   1.747786   1.752242   34.77401   0.07799437 0.8197194 
1299.6672  2.526972   85.16593   1.722919   1.758225   36.28988   0.07456274 0.835177  
1299.8196  2.526021   83.51476   1.704574   1.737766   36.81895   0.07513884 0.8168307 
1299.972   2.517157   81.90237   1.694744   1.696021   36.63      0.0805112  0.7989153 
1300.1244  2.507535   82.01257   1.687209   1.650838   36.85637   0.08634234 0.8001397 
1300.2768  2.502787   86.16898   1.677545   1.618403   37.07206   0.08922027 0.8463221 
1300.4292  2.50185    90.94815   1.664702   1.606087   36.81919   0.08978771 0.8994239 
1300.5816  2.502226   91.35681   1.648754   1.612397   36.6534    0.08955998 0.9039646 
1300.734   2.504693   91.11913   1.63387    1.62871    37.03534   0.08806503 0.9013236 
1300.8864  2.51233    93.14085   1.624818   1.642825   37.05662   0.08343653 0.9237872 
1301.0388  2.519961   93.5831    1.621642   1.644942   36.0611    0.07881179 0.9287011 
1301.1912  2.516773   90.99921   1.622232   1.632457   35.32494   0.08074384 0.8999912 
1301.3436  2.50722    89.11485   1.623172   1.609211   35.85083   0.08653351 0.8790538 
1301.496   2.506365   89.65907   1.620796   1.581744   36.42829   0.08705138 0.8851007 
1301.6484  2.51267    90.68412   1.614041   1.556263   36.0267    0.08323062 0.8964902 
1301.8008  2.517242   90.91006   1.604169   1.537261   35.33743   0.08045918 0.8990006 
1301.9532  2.520296   91.66194   1.593059   1.527878   35.19056   0.07860848 0.9073549 
1302.1056  2.519722   93.15965   1.582449   1.529399   36.27023   0.07895643 0.923996  
1302.258   2.513754   93.1292    1.575156   1.540668   37.17152   0.08257316 0.9236577 
1302.4104  2.508985   91.1112    1.573087   1.557849   36.76125   0.08546396 0.9012355 
1302.5628  2.510098   90.16872   1.578168   1.575341   36.7457    0.08478945 0.8907636 
1302.7152  2.513402   88.91749   1.593154   1.588887   37.12479   0.08278644 0.876861  
1302.8676  2.516516   85.63918   1.617195   1.598845   36.75375   0.08089918 0.8404354 
1303.02    2.52043    86.7355    1.646502   1.610002   35.82566   0.07852713 0.8526166 
1303.1724  2.528082   93.55482   1.674428   1.627416   35.33137   0.07388996 0.9283869 
1303.3248  2.537154   96.87368   1.691614   1.650813   36.11235   0.06839159 0.9652631 
1303.4772  2.540148   92.89549   1.692384   1.67186    36.77749   0.06657687 0.921061  
1303.6296  2.534402   89.51643   1.676618   1.677254   35.69118   0.07005922 0.883516  
1303.782   2.52624    91.67511   1.648571   1.656922   34.54549   0.07500619 0.9075012 
1303.9344  2.523175   93.47375   1.616463   1.612656   35.26052   0.07686397 0.9274861 
1304.0868  2.527779   90.58473   1.586765   1.558884   36.77436   0.07407347 0.8953859 
1304.2392  2.531482   86.63397   1.560196   1.513236   37.35507   0.07182945 0.8514886 
1304.3916  2.527239   86.51146   1.534778   1.487163   36.89809   0.07440089 0.8501273 
1304.544   2.520931   89.26627   1.511035   1.483322   36.08028   0.07822383 0.8807363 
1304.6964  2.523037   91.54224   1.494201   1.497169   35.24331   0.07694706 0.9060249 
1304.8488  2.537173   91.59212   1.490818   1.521296   34.99836   0.06838033 0.9065791 
1305.0012  2.546928   90.34773   1.503482   1.549018   34.95069   0.06246769 0.8927526 
1305.1536  2.541805   90.68348   1.531484   1.577221   34.06871   0.06557291 0.8964831 
1305.306   2.533172   91.11543   1.569775   1.605663   33.39038   0.07080511 0.9012825 
1305.4584  2.531259   90.00595   1.608062   1.633765   33.33739   0.07196441 0.888955  
1305.6108  2.532137   89.28725   1.638625   1.658505   34.08593   0.07143237 0.8809694 
1305.7632  2.531795   89.49295   1.661838   1.675504   35.06812   0.07163928 0.883255  
1305.9156  2.530611   90.65963   1.679949   1.681249   35.71667   0.072357   0.8962181 
1306.068   2.528439   93.25479   1.696428   1.676201   36.26193   0.07367322 0.9250532 
1306.2204  2.528988   95.10836   1.71571    1.666499   35.74015   0.07334044 0.9456484 
1306.3728  2.534225   96.95798   1.73767    1.662507   35.2307    0.07016687 0.9661998 
1306.5252  2.540797   100.1017   1.758382   1.674304   35.44941   0.06618355 1         
1306.6776  2.542635   102.9885   1.771611   1.706501   35.48497   0.06506977 1         
1306.83    2.536608   104.2431   1.771147   1.753394   35.15676   0.0687222  1         
1306.9824  2.529254   100.7429   1.763803   1.796925   35.00959   0.07317947 1         
1307.1348  2.524905   93.76417   1.770219   1.816905   35.6013    0.07581537 0.930713  
1307.2872  2.520493   89.05822   1.812147   1.811885   35.85772   0.07848912 0.8784246 
