~Version
 VERS              .         3.0                           : CWLS LOG ASCII STANDARD - VERSION 3.0
 WRAP              .         NO                            : ONE LINE PER DEPTH STEP
 DLM               .         SPACE                         : DELIMITING CHARACTER(SPACE TAB OR COMMA)
~Well Information
#_______________________________________________________________________________
#
#PARAMETER_NAME    .UNIT     VALUE                         : DESCRIPTION
#_______________________________________________________________________________
STRT               .m        3.81                          : First reference value
STOP               .m        2245.7664                     : Last reference value
STEP               .m        0.1524                        : Step increment
NULL               .         -9999                         : Missing value
COMP               .                                       : Company
WELL               .         1-ALV-2-BA                    : Well name
FLD                .         REC-T-155                     : Field
LOC                .                                       : Location
SRVC               .                                       : Service Company
CTRY               .                                       : Country
DATE               .                                       : Service Date
X                  .                                       : X or East-West coordinate
Y                  .                                       : Y or North South coordinate
GDAT               .                                       : Geodetic Datum
HZCS               .                                       : Horizontal Co-ordinate System
COMPANY            .         ALVORADA                      : 
CREATION-TIME      .         2021/8/18 13_56               : 
FIELD-NAME         .         REC-T-155                     : 
FILE-ID            .         ALV2FM.001                    : 
FILE-NUMBER        .         2                             : 
FILE-SET-NAME      .         LIS-TO-DLIS-CONVERSION        : 
FILE-SET-NUMBER    .         8788                          : 
FILE-TYPE          .         OAKSFT                        : 
NAME-SPACE-NAME    .                                       : 
NAME-SPACE-VERSION .         0                             : 
PRODUCER-CODE      .         440                           : 
PRODUCER-NAME      .         Schlumberger                  : 
PRODUCT            .         DLIS/U                        : 
PROGRAMS           .         LIS-TO-DLIS                   : 
VERSION            .         0.1                           : 
WELL-ID            .         20240024159                   : 
WELL-NAME          .         1-ALV-2-BA                    : 
~Parameter Information Block
#_______________________________________________________________________________
#
#PARAMETER_NAME    .UNIT     VALUE                         : DESCRIPTION
#_______________________________________________________________________________
SET                .         Merged_Set                    : 
TLFamily_DENS      .         Bulk Density                  : 
TLFamily_GR        .         Gamma Ray                     : 
TLFamily_ILD       .         Deep Resistivity              : 
TLFamily_ILM       .         Medium Resistivity            : 
TLFamily_MD        .         Measured Depth                : 
TLFamily_Neu       .         Neutron Porosity              : 
TLFamily_Porosity-Density .         Porosity                      : 
TLFamily_VSH_GR    .         Shale Volume                  : 
~Curve Information
#_______________________________________________________________________________
#
#LOGNAME           .UNIT     LOG_ID                        : DESCRIPTION
#_______________________________________________________________________________
MD                 .m                                      :  {F}
DENS               .g/cm3                                  :  {F}
GR                 .gAPI                                   :  {F}
ILD                .ohm.m                                  :  {F}
ILM                .ohm.m                                  :  {F}
Neu                .m3/m3                                  :  {F}
Porosity-Density   .v/v                                    :  {F}
VSH_GR             .v/v                                    :  {F}
~Ascii
# ...
572.4144   -9999      17.79317   6.758916   7.842817   -9999      -9999      0.08659079
572.5668   -9999      17.71517   5.50101    6.273962   -9999      -9999      0.08572409
572.7192   -9999      19.39743   4.550737   5.250495   -9999      -9999      0.1044158 
572.8716   -9999      22.61437   3.929121   4.483416   -9999      -9999      0.1401597 
573.024    -9999      30.39832   3.503592   3.845786   -9999      -9999      0.226648  
573.1764   -9999      40.93723   3.203158   3.324747   -9999      -9999      0.343747  
573.3288   -9999      51.10667   2.944257   2.928205   -9999      -9999      0.4567407 
573.4812   -9999      57.40592   2.700378   2.656529   -9999      -9999      0.5267324 
573.6336   -9999      62.75781   2.511982   2.485793   -9999      -9999      0.5861979 
573.786    -9999      68.21116   2.382026   2.385229   -9999      -9999      0.6467906 
573.9384   -9999      72.80692   2.315659   2.325935   -9999      -9999      0.6978546 
574.0908   -9999      73.04633   2.293343   2.285954   -9999      -9999      0.7005148 
574.2432   -9999      70.2489    2.291157   2.25572    -9999      -9999      0.6694322 
574.3956   -9999      71.09769   2.290164   2.237959   -9999      -9999      0.6788632 
574.548    -9999      69.46559   2.284973   2.238551   -9999      -9999      0.6607288 
574.7004   -9999      65.55276   2.275883   2.256401   -9999      -9999      0.6172529 
574.8528   -9999      62.81474   2.271549   2.280342   -9999      -9999      0.5868304 
575.0052   -9999      59.55386   2.273667   2.296763   -9999      -9999      0.5505984 
575.1576   -9999      60.19276   2.271481   2.29819    -9999      -9999      0.5576974 
575.31     -9999      63.3294    2.258621   2.284361   -9999      -9999      0.5925489 
575.4624   -9999      63.69236   2.232379   2.257876   -9999      -9999      0.5965818 
575.6148   -9999      63.43588   2.191401   2.218807   -9999      -9999      0.593732  
575.7672   -9999      66.62934   2.144317   2.169292   -9999      -9999      0.6292149 
575.9196   -9999      66.83337   2.097629   2.115201   -9999      -9999      0.6314818 
576.072    -9999      65.25134   2.062984   2.06513    -9999      -9999      0.6139037 
576.2244   -9999      65.20113   2.056872   2.02768    -9999      -9999      0.6133459 
576.3768   -9999      65.35809   2.088004   2.010766   -9999      -9999      0.61509   
576.5292   -9999      63.19613   2.163846   2.02317    -9999      -9999      0.5910681 
576.6816   -9999      60.3488    2.278448   2.076392   -9999      -9999      0.5594311 
576.834    -9999      60.77724   2.410375   2.183438   -9999      -9999      0.5641916 
576.9864   -9999      62.92107   2.545383   2.355736   -9999      -9999      0.5880119 
577.1388   -9999      67.56191   2.640981   2.584677   -9999      -9999      0.6395768 
577.2912   -9999      72.80988   2.696542   2.816753   -9999      -9999      0.6978876 
577.4436   -9999      67.11436   2.731203   2.94564    -9999      -9999      0.634604  
577.596    -9999      55.92458   2.736245   2.890991   -9999      -9999      0.5102731 
577.7484   -9999      53.83229   2.685953   2.693837   -9999      -9999      0.4870255 
577.9008   -9999      59.39583   2.567654   2.467002   -9999      -9999      0.5488425 
578.0532   -9999      66.01399   2.384857   2.2854     -9999      -9999      0.6223777 
578.2056   -9999      69.83547   2.217414   2.164988   -9999      -9999      0.6648386 
578.358    -9999      72.92871   2.094637   2.091043   -9999      -9999      0.6992079 
578.5104   -9999      77.30489   2.021333   2.041788   -9999      -9999      0.7478322 
578.6628   -9999      77.10714   1.990084   1.997623   -9999      -9999      0.7456349 
578.8152   -9999      72.26984   1.977069   1.948399   -9999      -9999      0.6918871 
578.9676   -9999      71.29435   1.963275   1.895007   -9999      -9999      0.6810483 
579.12     -9999      73.31808   1.93897    1.845958   -9999      -9999      0.7035342 
579.2724   -9999      71.88454   1.905099   1.808352   -9999      -9999      0.687606  
579.4248   -9999      68.77122   1.873003   1.783532   -9999      -9999      0.6530136 
579.5772   -9999      66.65      1.853154   1.769332   -9999      -9999      0.6294445 
579.7296   -9999      68.10941   1.850767   1.765864   -9999      -9999      0.64566   
579.882    -9999      69.80592   1.861953   1.776645   -9999      -9999      0.6645103 
580.0344   -9999      68.55766   1.878432   1.802852   -9999      -9999      0.6506406 
580.1868   -9999      66.7801    1.899518   1.837388   -9999      -9999      0.63089   
580.3392   -9999      63.75459   1.928567   1.867445   -9999      -9999      0.5972732 
580.4916   -9999      62.20403   1.962139   1.886353   -9999      -9999      0.5800447 
580.644    -9999      62.6808    2.002693   1.900853   -9999      -9999      0.5853422 
580.7964   -9999      59.43406   2.043005   1.923857   -9999      -9999      0.5492674 
580.9488   -9999      57.82164   2.090621   1.964751   -9999      -9999      0.5313516 
581.1012   -9999      62.22171   2.142266   2.029023   -9999      -9999      0.5802413 
581.2536   -9999      62.37823   2.199362   2.124289   -9999      -9999      0.5819803 
581.406    -9999      57.29861   2.263268   2.255598   -9999      -9999      0.5255401 
581.5584   -9999      56.44614   2.377609   2.414719   -9999      -9999      0.5160682 
581.7108   -9999      56.64647   2.593857   2.580627   -9999      -9999      0.5182942 
581.8632   -9999      57.88919   2.944214   2.755792   -9999      -9999      0.5321022 
582.0156   -9999      60.30609   3.413625   3.000128   -9999      -9999      0.5589566 
582.168    -9999      59.9929    3.912245   3.429292   -9999      -9999      0.5554766 
582.3204   -9999      56.2742    4.328164   4.166373   -9999      -9999      0.5141577 
582.4728   -9999      51.24383   4.612314   5.220394   -9999      -9999      0.4582648 
582.6252   -9999      45.96255   4.788283   6.162347   -9999      -9999      0.3995839 
582.7776   -9999      43.99007   4.78864    6.19842    -9999      -9999      0.3776675 
582.93     -9999      47.98755   4.557489   5.34566    -9999      -9999      0.4220839 
583.0824   -9999      56.76379   4.091689   4.351287   -9999      -9999      0.5195976 
583.2348   -9999      63.62652   3.587137   3.598065   -9999      -9999      0.5958502 
583.3872   -9999      62.83709   3.145139   3.101419   -9999      -9999      0.5870788 
583.5396   -9999      60.90492   2.804092   2.786166   -9999      -9999      0.5656102 
583.692    -9999      62.10091   2.567768   2.585759   -9999      -9999      0.578899  
583.8444   -9999      60.21585   2.42273    2.451357   -9999      -9999      0.5579538 
583.9968   -9999      61.62794   2.334289   2.35317    -9999      -9999      0.5736438 
584.1492   -9999      68.91064   2.2814     2.276892   -9999      -9999      0.6545627 
584.3016   -9999      70.43944   2.244359   2.221408   -9999      -9999      0.6715493 
584.454    -9999      66.37101   2.21962    2.187702   -9999      -9999      0.6263446 
584.6064   -9999      64.37435   2.207275   2.171118   -9999      -9999      0.6041595 
584.7588   -9999      65.54502   2.20259    2.159405   -9999      -9999      0.6171669 
584.9112   -9999      63.29996   2.19702    2.142626   -9999      -9999      0.5922217 
585.0636   -9999      62.20056   2.178049   2.120841   -9999      -9999      0.5800062 
585.216    -9999      65.63279   2.137789   2.099057   -9999      -9999      0.6181421 
585.3684   -9999      64.75012   2.089307   2.077223   -9999      -9999      0.6083347 
585.5208   -9999      62.99079   2.042016   2.045284   -9999      -9999      0.5887865 
585.6732   -9999      65.56819   2.004589   1.996448   -9999      -9999      0.6174244 
585.8256   -9999      68.04533   1.981039   1.937299   -9999      -9999      0.6449481 
585.978    -9999      63.9777    1.970621   1.887414   -9999      -9999      0.5997522 
586.1304   -9999      57.07494   1.965612   1.863252   -9999      -9999      0.5230548 
