~Version
 VERS              .         3.0                           : CWLS LOG ASCII STANDARD - VERSION 3.0
 WRAP              .         NO                            : ONE LINE PER DEPTH STEP
 DLM               .         SPACE                         : DELIMITING CHARACTER(SPACE TAB OR COMMA)
~Well Information
#_______________________________________________________________________________
#
#PARAMETER_NAME    .UNIT     VALUE                         : DESCRIPTION
#_______________________________________________________________________________
STRT               .m        3.81                          : First reference value
STOP               .m        2245.7664                     : Last reference value
STEP               .m        0.1524                        : Step increment
NULL               .         -9999                         : Missing value
COMP               .                                       : Company
WELL               .         1-ALV-2-BA                    : Well name
FLD                .         REC-T-155                     : Field
LOC                .                                       : Location
SRVC               .                                       : Service Company
CTRY               .                                       : Country
DATE               .                                       : Service Date
X                  .                                       : X or East-West coordinate
Y                  .                                       : Y or North South coordinate
GDAT               .                                       : Geodetic Datum
HZCS               .                                       : Horizontal Co-ordinate System
COMPANY            .         ALVORADA                      : 
CREATION-TIME      .         2021/8/18 13_56               : 
FIELD-NAME         .         REC-T-155                     : 
FILE-ID            .         ALV2FM.001                    : 
FILE-NUMBER        .         2                             : 
FILE-SET-NAME      .         LIS-TO-DLIS-CONVERSION        : 
FILE-SET-NUMBER    .         8788                          : 
FILE-TYPE          .         OAKSFT                        : 
NAME-SPACE-NAME    .                                       : 
NAME-SPACE-VERSION .         0                             : 
PRODUCER-CODE      .         440                           : 
PRODUCER-NAME      .         Schlumberger                  : 
PRODUCT            .         DLIS/U                        : 
PROGRAMS           .         LIS-TO-DLIS                   : 
VERSION            .         0.1                           : 
WELL-ID            .         20240024159                   : 
WELL-NAME          .         1-ALV-2-BA                    : 
~Parameter Information Block
#_______________________________________________________________________________
#
#PARAMETER_NAME    .UNIT     VALUE                         : DESCRIPTION
#_______________________________________________________________________________
SET                .         Merged_Set                    : 
TLFamily_DENS      .         Bulk Density                  : 
TLFamily_GR        .         Gamma Ray                     : 
TLFamily_ILD       .         Deep Resistivity              : 
TLFamily_ILM       .         Medium Resistivity            : 
TLFamily_MD        .         Measured Depth                : 
TLFamily_Neu       .         Neutron Porosity              : 
TLFamily_Porosity-Density .         Porosity                      : 
TLFamily_VSH_GR    .         Shale Volume                  : 
~Curve Information
#_______________________________________________________________________________
#
#LOGNAME           .UNIT     LOG_ID                        : DESCRIPTION
#_______________________________________________________________________________
MD                 .m                                      :  {F}
DENS               .g/cm3                                  :  {F}
GR                 .gAPI                                   :  {F}
ILD                .ohm.m                                  :  {F}
ILM                .ohm.m                                  :  {F}
Neu                .m3/m3                                  :  {F}
Porosity-Density   .v/v                                    :  {F}
VSH_GR             .v/v                                    :  {F}
~Ascii
# ...
1640.2812  2.565223   77.39648   2.902039   2.814339   29.56567   0.05137978 0.7488497 
1640.4336  2.55947    83.27177   2.678844   2.693651   30.82289   0.05486647 0.8141308 
1640.586   2.551525   83.4166    2.455194   2.518486   30.12608   0.0596818  0.8157399 
1640.7384  2.537192   78.23189   2.272024   2.287796   29.1064    0.06836847 0.7581321 
1640.8908  2.530046   73.54694   2.135988   2.055034   29.75341   0.07269946 0.7060772 
1641.0432  2.536852   72.59562   2.032204   1.875316   30.94919   0.06857467 0.6955069 
1641.1956  2.548296   74.57451   1.937516   1.767245   31.73997   0.06163871 0.7174945 
1641.348   2.55073    77.85664   1.84583    1.722897   32.44724   0.06016384 0.7539626 
1641.5004  2.543483   80.87886   1.768591   1.719226   33.26093   0.06455609 0.7875429 
1641.6528  2.536785   83.63859   1.718274   1.73056    33.69405   0.06861542 0.8182065 
1641.8052  2.536462   85.5835    1.701822   1.738976   33.02551   0.06881078 0.8398166 
1641.9576  2.544441   83.29688   1.719262   1.740107   31.54981   0.06397551 0.8144097 
1642.11    2.564345   79.23522   1.760108   1.741433   30.27719   0.0519121  0.7692803 
1642.2624  2.575015   79.12319   1.805849   1.753753   30.3542    0.04544532 0.7680355 
1642.4148  2.564119   79.90689   1.838187   1.780967   31.81253   0.05204909 0.7767432 
1642.5672  2.55337    79.51388   1.848124   1.813246   33.0304    0.05856398 0.7723764 
1642.7196  2.546845   81.0862    1.838773   1.830488   32.84472   0.06251797 0.7898467 
1642.872   2.541289   84.42665   1.817234   1.817752   31.61922   0.06588545 0.8269628 
1643.0244  2.54038    86.04562   1.788813   1.778494   30.8051    0.06643671 0.8449513 
1643.1768  2.542688   84.8486    1.756139   1.730146   31.00862   0.06503784 0.8316512 
1643.3292  2.546177   83.28163   1.722639   1.691015   31.8549    0.06292299 0.8142403 
1643.4816  2.549407   82.30855   1.699625   1.673896   32.7465    0.0609658  0.8034283 
1643.634   2.550724   82.07635   1.705746   1.690346   33.25945   0.0601676  0.8008483 
1643.7864  2.553649   82.63025   1.752841   1.755856   33.47331   0.05839477 0.8070028 
1643.9388  2.561528   81.94948   1.843925   1.888764   33.70835   0.05361961 0.7994387 
1644.0912  2.572993   79.73845   1.981249   2.101574   33.49319   0.04667109 0.7748716 
1644.2436  2.585137   77.86779   2.158902   2.382362   32.78305   0.03931117 0.7540866 
1644.396   2.592774   76.36047   2.358956   2.680522   31.36552   0.03468224 0.7373385 
1644.5484  2.597972   75.3401    2.561126   2.914537   28.85698   0.03153223 0.7260011 
1644.7008  2.602833   75.2066    2.723779   3.016459   26.6473    0.02858639 0.7245178 
1644.8532  2.605529   76.29333   2.791411   2.968064   26.01853   0.02695199 0.7365925 
1645.0056  2.602646   78.80965   2.742179   2.802546   26.38413   0.02869967 0.7645516 
1645.158   2.593532   80.32124   2.609719   2.581935   26.51731   0.03422332 0.781347  
1645.3104  2.582743   78.75334   2.448759   2.370853   26.85401   0.04076163 0.763926  
1645.4628  2.576337   74.13291   2.302016   2.212474   27.93266   0.04464453 0.7125879 
1645.6152  2.576588   68.46979   2.189675   2.125069   28.58704   0.04449237 0.6496643 
1645.7676  2.580508   65.38851   2.122263   2.108909   29.04171   0.04211671 0.6154279 
1645.92    2.58191    65.87681   2.110055   2.160058   29.5769    0.04126693 0.6208534 
1646.0724  2.576987   68.97444   2.15262    2.27189    29.13098   0.04425048 0.6552716 
1646.2248  2.571677   74.09455   2.245916   2.43468    28.09829   0.04746856 0.7121617 
1646.3772  2.571634   78.26017   2.38241    2.631197   27.3335    0.04749471 0.7584463 
1646.5296  2.572223   77.96734   2.524045   2.826488   26.86004   0.04713781 0.7551926 
1646.682   2.566888   77.47908   2.630533   2.961454   26.71731   0.05037105 0.7497675 
1646.8344  2.556128   81.3188    2.691559   2.977123   27.65321   0.05689245 0.7924311 
1646.9868  2.545639   83.50338   2.711103   2.867989   28.48966   0.06324927 0.8167042 
1647.1392  2.539357   82.18147   2.704635   2.697094   27.99608   0.06705616 0.8020164 
1647.2916  2.537736   80.57349   2.679601   2.547991   28.20274   0.06803859 0.7841499 
1647.444   2.544647   80.7021    2.62613    2.467586   30.83987   0.06385066 0.7855789 
1647.5964  2.561664   83.43298   2.543951   2.455136   33.51736   0.0535371  0.815922  
1647.7488  2.576497   83.3987    2.452042   2.474683   33.16894   0.04454714 0.8155411 
1647.9012  2.577131   79.69791   2.377243   2.480051   30.50956   0.04416321 0.7744213 
1648.0536  2.572218   77.25085   2.331509   2.444512   28.53455   0.04714041 0.7472317 
1648.206   2.572598   77.20361   2.309334   2.373706   28.81985   0.04691051 0.7467067 
1648.3584  2.581021   77.74146   2.298853   2.291784   30.46192   0.04180532 0.7526829 
1648.5108  2.597097   77.85438   2.285841   2.222028   31.37463   0.03206224 0.7539375 
1648.6632  2.612562   80.21043   2.259221   2.177326   31.29457   0.02268993 0.780116  
1648.8156  2.614257   84.50331   2.220867   2.160949   30.74814   0.02166242 0.8278146 
1648.968   2.600432   85.96854   2.18498    2.169602   29.66697   0.03004132 0.8440949 
1649.1204  2.58514    85.30141   2.165084   2.196434   29.28291   0.03930901 0.8366823 
1649.2728  2.581212   83.60246   2.172976   2.235075   30.11054   0.04168987 0.8178052 
1649.4252  2.585946   79.59254   2.217777   2.285112   30.88029   0.0388209  0.7732504 
1649.5776  2.587333   75.15979   2.293328   2.353848   30.86858   0.03797979 0.7239977 
1649.73    2.582514   72.93883   2.385403   2.452235   30.3046    0.04090063 0.6993203 
1649.8824  2.576836   73.70155   2.483717   2.581088   29.61877   0.04434166 0.707795  
1650.0348  2.569665   75.97247   2.576198   2.723564   28.88317   0.04868796 0.7330274 
1650.1872  2.560695   76.62007   2.651811   2.843289   28.37765   0.05412434 0.740223  
1650.3396  2.559757   76.33385   2.71171    2.901033   28.4591    0.05469293 0.7370427 
1650.492   2.571463   77.1202    2.759155   2.885346   28.49157   0.04759817 0.74578   
1650.6444  2.587224   79.81429   2.792699   2.82608    28.53612   0.03804626 0.7757143 
1650.7968  2.596624   80.58015   2.80686    2.770279   29.03647   0.03234906 0.7842239 
1650.9492  2.597976   75.79074   2.798323   2.74817    29.18338   0.03152991 0.7310082 
1651.1016  2.598478   72.09945   2.774678   2.760124   28.77427   0.03122575 0.6899939 
1651.254   2.602128   71.56721   2.754864   2.789669   28.07385   0.02901323 0.6840801 
1651.4064  2.607043   70.53183   2.758733   2.824349   27.71331   0.02603487 0.6725759 
1651.5588  2.609464   68.7158    2.785666   2.866344   28.15041   0.02456723 0.6523978 
1651.7112  2.603539   66.95222   2.822707   2.924099   28.67835   0.02815796 0.6328024 
1651.8636  2.585596   67.28903   2.863512   2.998689   28.98812   0.03903288 0.6365448 
1652.016   2.565299   70.33063   2.911775   3.083969   29.2485    0.05133383 0.6703403 
1652.1684  2.553329   73.2685    2.982735   3.179224   29.44885   0.0585884  0.7029833 
1652.3208  2.549406   74.584     3.101996   3.304784   29.23986   0.06096608 0.7176    
1652.4732  2.550204   75.41772   3.291862   3.505259   28.87435   0.0604826  0.7268636 
1652.6256  2.558365   77.2075    3.543718   3.846308   28.70626   0.05553621 0.7467499 
1652.778   2.572917   77.88416   3.83865    4.395648   28.44421   0.04671732 0.7542685 
1652.9304  2.585557   77.09196   4.170303   5.176698   28.34341   0.03905672 0.7454663 
1653.0828  2.587073   74.99578   4.564835   6.124596   28.0636    0.03813787 0.7221754 
1653.2352  2.577852   70.48804   5.068273   7.050722   26.9465    0.0437264  0.6720893 
1653.3876  2.566947   67.31322   5.692962   7.770292   25.6098    0.05033522 0.6368136 
1653.54    2.560477   66.79478   6.389221   8.210973   24.95362   0.0542567  0.6310531 
1653.6924  2.559989   66.46893   6.968713   8.377814   24.89922   0.0545519  0.6274325 
1653.8448  2.567292   66.89107   7.150017   8.23339    24.69464   0.05012628 0.632123  
1653.9972  2.579538   67.43193   6.801413   7.696834   24.67439   0.04270438 0.6381326 
