~Version
 VERS              .         3.0                           : CWLS LOG ASCII STANDARD - VERSION 3.0
 WRAP              .         NO                            : ONE LINE PER DEPTH STEP
 DLM               .         SPACE                         : DELIMITING CHARACTER(SPACE TAB OR COMMA)
~Well Information
#_______________________________________________________________________________
#
#PARAMETER_NAME    .UNIT     VALUE                         : DESCRIPTION
#_______________________________________________________________________________
STRT               .m        3.81                          : First reference value
STOP               .m        2245.7664                     : Last reference value
STEP               .m        0.1524                        : Step increment
NULL               .         -9999                         : Missing value
COMP               .                                       : Company
WELL               .         1-ALV-2-BA                    : Well name
FLD                .         REC-T-155                     : Field
LOC                .                                       : Location
SRVC               .                                       : Service Company
CTRY               .                                       : Country
DATE               .                                       : Service Date
X                  .                                       : X or East-West coordinate
Y                  .                                       : Y or North South coordinate
GDAT               .                                       : Geodetic Datum
HZCS               .                                       : Horizontal Co-ordinate System
COMPANY            .         ALVORADA                      : 
CREATION-TIME      .         2021/8/18 13_56               : 
FIELD-NAME         .         REC-T-155                     : 
FILE-ID            .         ALV2FM.001                    : 
FILE-NUMBER        .         2                             : 
FILE-SET-NAME      .         LIS-TO-DLIS-CONVERSION        : 
FILE-SET-NUMBER    .         8788                          : 
FILE-TYPE          .         OAKSFT                        : 
NAME-SPACE-NAME    .                                       : 
NAME-SPACE-VERSION .         0                             : 
PRODUCER-CODE      .         440                           : 
PRODUCER-NAME      .         Schlumberger                  : 
PRODUCT            .         DLIS/U                        : 
PROGRAMS           .         LIS-TO-DLIS                   : 
VERSION            .         0.1                           : 
WELL-ID            .         20240024159                   : 
WELL-NAME          .         1-ALV-2-BA                    : 
~Parameter Information Block
#_______________________________________________________________________________
#
#PARAMETER_NAME    .UNIT     VALUE                         : DESCRIPTION
#_______________________________________________________________________________
SET                .         Merged_Set                    : 
TLFamily_DENS      .         Bulk Density                  : 
TLFamily_GR        .         Gamma Ray                     : 
TLFamily_ILD       .         Deep Resistivity              : 
TLFamily_ILM       .         Medium Resistivity            : 
TLFamily_MD        .         Measured Depth                : 
TLFamily_Neu       .         Neutron Porosity              : 
TLFamily_Porosity-Density .         Porosity                      : 
TLFamily_VSH_GR    .         Shale Volume                  : 
~Curve Information
#_______________________________________________________________________________
#
#LOGNAME           .UNIT     LOG_ID                        : DESCRIPTION
#_______________________________________________________________________________
MD                 .m                                      :  {F}
DENS               .g/cm3                                  :  {F}
GR                 .gAPI                                   :  {F}
ILD                .ohm.m                                  :  {F}
ILM                .ohm.m                                  :  {F}
Neu                .m3/m3                                  :  {F}
Porosity-Density   .v/v                                    :  {F}
VSH_GR             .v/v                                    :  {F}
~Ascii
# ...
1404.5184  2.536783   76.11902   2.535283   2.645576   19.45622   0.06861643 0.7346557 
1404.6708  2.539305   74.29897   2.53717    2.645866   19.588     0.06708766 0.714433  
1404.8232  2.544351   74.51128   2.532248   2.636746   20.09123   0.06402969 0.716792  
1404.9756  2.545854   77.61432   2.522778   2.61599    19.97675   0.06311864 0.7512702 
1405.128   2.545154   80.00632   2.512161   2.586423   19.64855   0.06354317 0.7778481 
1405.2804  2.542663   81.0919    2.502437   2.556077   19.96127   0.06505287 0.78991   
1405.4328  2.539789   83.72594   2.494947   2.534275   20.46191   0.06679463 0.8191771 
1405.5852  2.541388   88.10574   2.489346   2.526255   21.2586    0.06582548 0.8678416 
1405.7376  2.546681   90.24693   2.48603    2.530978   22.73153   0.06261782 0.8916325 
1405.89    2.550453   87.88507   2.486482   2.543413   23.82339   0.0603316  0.8653897 
1406.0424  2.550789   85.84194   2.491258   2.557802   23.30708   0.06012772 0.8426883 
1406.1948  2.546865   88.39601   2.49948    2.569051   21.81751   0.06250612 0.8710668 
1406.3472  2.537933   91.63601   2.507692   2.573301   20.77328   0.06791924 0.9070668 
1406.4996  2.528809   91.29726   2.513087   2.568728   20.58849   0.07344896 0.9033029 
1406.652   2.530303   89.83122   2.515277   2.556567   20.72385   0.0725434  0.8870136 
1406.8044  2.544474   88.80296   2.514179   2.540592   20.85982   0.06395528 0.8755885 
1406.9568  2.55602    86.34229   2.50896    2.524855   21.20955   0.05695776 0.8482476 
1407.1092  2.556145   83.3418    2.498827   2.512701   21.65635   0.05688161 0.8149089 
1407.2616  2.552124   81.12842   2.485069   2.505179   21.78288   0.05931868 0.7903157 
1407.414   2.548384   78.62077   2.46841    2.499895   21.94452   0.06158554 0.762453  
1407.5664  2.5414     74.91223   2.450765   2.492141   22.26291   0.06581797 0.721247  
1407.7188  2.534157   71.2619    2.437602   2.478715   22.23738   0.07020791 0.6806878 
1407.8712  2.53308    70.03812   2.430993   2.461416   21.78495   0.07086074 0.6670902 
1408.0236  2.540359   72.1426    2.430867   2.44693    21.01846   0.06644928 0.6904733 
1408.176   2.54898    76.5038    2.436898   2.442636   20.42222   0.06122459 0.7389311 
1408.3284  2.54936    80.09215   2.44415    2.451492   20.56451   0.06099383 0.7788016 
1408.4808  2.544689   81.28292   2.450261   2.470883   21.04721   0.06382494 0.7920325 
1408.6332  2.542497   80.98357   2.459153   2.495089   21.36751   0.06515343 0.7887064 
1408.7856  2.538074   79.63779   2.471731   2.518489   21.46162   0.06783369 0.7737532 
1408.938   2.531135   75.00697   2.486574   2.538238   20.81009   0.0720394  0.7222996 
1409.0904  2.532531   69.03677   2.502035   2.553645   19.87571   0.07119323 0.6559641 
1409.2428  2.540134   69.76479   2.51654    2.565042   19.28154   0.06658539 0.6640532 
1409.3952  2.54096    76.91924   2.528985   2.573086   19.14401   0.06608485 0.7435471 
1409.5476  2.536458   80.86804   2.538512   2.578985   19.63585   0.06881323 0.7874227 
1409.7     2.538037   78.90517   2.543626   2.583815   20.33462   0.06785653 0.765613  
1409.8524  2.546379   76.59229   2.545091   2.587267   20.52077   0.06280061 0.7399143 
1410.0048  2.552188   76.91927   2.543861   2.587637   20.15912   0.05927996 0.7435474 
1410.1572  2.552299   78.09398   2.541001   2.583162   19.96286   0.05921291 0.7565998 
1410.3096  2.553265   77.17224   2.536862   2.573116   20.13035   0.05862727 0.7463582 
1410.462   2.556965   75.30733   2.529651   2.557886   20.07599   0.05638512 0.725637  
1410.6144  2.557489   75.77253   2.518652   2.538161   19.49605   0.05606723 0.7308059 
1410.7668  2.552705   78.85428   2.505994   2.515333   18.91102   0.05896655 0.7650476 
1410.9192  2.542771   82.86294   2.493541   2.492512   19.14574   0.06498741 0.8095882 
1411.0716  2.532053   84.56532   2.483021   2.474797   20.05441   0.07148337 0.8285035 
1411.224   2.532887   83.80343   2.474055   2.466204   21.31201   0.07097735 0.8200381 
1411.3764  2.548151   83.31883   2.466717   2.467669   22.50867   0.06172657 0.8146537 
1411.5288  2.560815   84.58829   2.461654   2.476328   23.3906    0.05405137 0.8287588 
1411.6812  2.555295   84.56371   2.457685   2.486558   23.61916   0.05739674 0.8284857 
1411.8336  2.539674   80.38031   2.454182   2.493109   23.17042   0.06686427 0.7820035 
1411.986   2.530707   75.0424    2.452916   2.494419   22.21419   0.07229891 0.7226934 
1412.1384  2.530487   71.53352   2.455346   2.493026   21.03426   0.07243214 0.6837058 
1412.2908  2.532108   71.28275   2.461383   2.493475   20.19613   0.07144985 0.6809195 
1412.4432  2.534921   75.1322    2.470857   2.499373   19.89562   0.06974465 0.7236911 
1412.5956  2.537288   80.34555   2.482687   2.511529   20.82052   0.06831053 0.7816172 
1412.748   2.534388   84.27778   2.49417    2.527911   22.97326   0.07006804 0.8253087 
1412.9004  2.529322   86.99052   2.502835   2.545021   24.6292    0.07313829 0.8554502 
1413.0528  2.531009   85.70471   2.507705   2.559568   24.62851   0.07211584 0.8411635 
1413.2052  2.54224    80.26923   2.507707   2.570029   23.28344   0.06530906 0.7807693 
1413.3576  2.555575   77.97385   2.500535   2.575197   22.37329   0.0572271  0.7552651 
1413.51    2.564741   82.91372   2.483278   2.572198   22.64548   0.05167238 0.8101524 
1413.6624  2.568406   90.27205   2.453697   2.556923   22.82981   0.04945076 0.8919116 
1413.8148  2.564718   94.2621    2.409684   2.527869   22.54729   0.05168611 0.9362456 
1413.9672  2.558424   94.47729   2.352473   2.489337   22.08423   0.05550037 0.9386366 
1414.1196  2.557686   92.98878   2.28666    2.450416   21.3169    0.05594817 0.9220975 
1414.272   2.553963   89.86012   2.214475   2.418118   20.78706   0.05820419 0.8873346 
1414.4244  2.531591   83.33672   2.141151   2.39214    21.53093   0.07176283 0.8148524 
1414.5768  2.494178   72.29621   2.077828   2.367108   22.92938   0.09443745 0.6921801 
1414.7292  2.462143   58.15893   2.035756   2.341287   23.41278   0.1138527  0.5350992 
1414.8816  2.446193   45.89218   2.021813   2.322212   22.40394   0.1235193  0.398802  
1415.034   2.440994   40.09713   2.035763   2.324667   20.47959   0.1266702  0.3344125 
1415.1864  2.440635   39.24794   2.060985   2.358952   18.54502   0.1268881  0.3249772 
1415.3388  2.443606   39.72851   2.072451   2.415484   17.13262   0.1250871  0.3303168 
1415.4912  2.447638   41.25658   2.052905   2.453771   16.39026   0.1226438  0.3472953 
1415.6436  2.452246   44.34566   2.003306   2.417821   15.86788   0.1198511  0.3816185 
1415.796   2.457133   47.706     1.940699   2.284947   14.97876   0.1168891  0.4189555 
1415.9484  2.456663   50.63686   1.882928   2.094769   14.0357    0.1171741  0.4515207 
1416.1008  2.447575   52.88277   1.836111   1.916141   14.28752   0.1226821  0.4764752 
1416.2532  2.434647   54.27947   1.798053   1.796239   15.91509   0.130517   0.4919941 
1416.4056  2.42819    55.96824   1.769938   1.750126   17.7427    0.1344301  0.5107583 
1416.558   2.434632   58.44488   1.754496   1.770829   18.89835   0.1305261  0.5382764 
1416.7104  2.452214   59.00529   1.75961    1.840929   19.44592   0.1198701  0.5445033 
1416.8628  2.474929   56.42758   1.799648   1.940007   19.70056   0.1061036  0.515862  
1417.0152  2.491594   52.87917   1.877641   2.048978   19.54193   0.09600379 0.4764352 
1417.1676  2.494456   50.76425   1.985234   2.156843   19.03199   0.09426911 0.4529361 
1417.32    2.494347   52.0173    2.105072   2.256622   18.2759    0.09433529 0.4668589 
1417.4724  2.506642   58.90337   2.20939    2.337842   17.49641   0.08688377 0.5433708 
1417.6248  2.529302   70.92902   2.273441   2.383691   17.65442   0.07315014 0.6769891 
1417.7772  2.547554   83.7162    2.292229   2.380567   19.68405   0.06208839 0.8190689 
1417.9296  2.551368   92.5778    2.277513   2.333397   23.14868   0.05977703 0.9175311 
1418.082   2.542117   96.76904   2.240177   2.266053   25.61383   0.06538347 0.9641004 
1418.2344  2.527345   99.90311   2.190304   2.20428    26.76942   0.07433645 0.9989235 
