~Version
 VERS              .         3.0                           : CWLS LOG ASCII STANDARD - VERSION 3.0
 WRAP              .         NO                            : ONE LINE PER DEPTH STEP
 DLM               .         SPACE                         : DELIMITING CHARACTER(SPACE TAB OR COMMA)
~Well Information
#_______________________________________________________________________________
#
#PARAMETER_NAME    .UNIT     VALUE                         : DESCRIPTION
#_______________________________________________________________________________
STRT               .m        3.81                          : First reference value
STOP               .m        2245.7664                     : Last reference value
STEP               .m        0.1524                        : Step increment
NULL               .         -9999                         : Missing value
COMP               .                                       : Company
WELL               .         1-ALV-2-BA                    : Well name
FLD                .         REC-T-155                     : Field
LOC                .                                       : Location
SRVC               .                                       : Service Company
CTRY               .                                       : Country
DATE               .                                       : Service Date
X                  .                                       : X or East-West coordinate
Y                  .                                       : Y or North South coordinate
GDAT               .                                       : Geodetic Datum
HZCS               .                                       : Horizontal Co-ordinate System
COMPANY            .         ALVORADA                      : 
CREATION-TIME      .         2021/8/18 13_56               : 
FIELD-NAME         .         REC-T-155                     : 
FILE-ID            .         ALV2FM.001                    : 
FILE-NUMBER        .         2                             : 
FILE-SET-NAME      .         LIS-TO-DLIS-CONVERSION        : 
FILE-SET-NUMBER    .         8788                          : 
FILE-TYPE          .         OAKSFT                        : 
NAME-SPACE-NAME    .                                       : 
NAME-SPACE-VERSION .         0                             : 
PRODUCER-CODE      .         440                           : 
PRODUCER-NAME      .         Schlumberger                  : 
PRODUCT            .         DLIS/U                        : 
PROGRAMS           .         LIS-TO-DLIS                   : 
VERSION            .         0.1                           : 
WELL-ID            .         20240024159                   : 
WELL-NAME          .         1-ALV-2-BA                    : 
~Parameter Information Block
#_______________________________________________________________________________
#
#PARAMETER_NAME    .UNIT     VALUE                         : DESCRIPTION
#_______________________________________________________________________________
SET                .         Merged_Set                    : 
TLFamily_DENS      .         Bulk Density                  : 
TLFamily_GR        .         Gamma Ray                     : 
TLFamily_ILD       .         Deep Resistivity              : 
TLFamily_ILM       .         Medium Resistivity            : 
TLFamily_MD        .         Measured Depth                : 
TLFamily_Neu       .         Neutron Porosity              : 
TLFamily_Porosity-Density .         Porosity                      : 
TLFamily_VSH_GR    .         Shale Volume                  : 
~Curve Information
#_______________________________________________________________________________
#
#LOGNAME           .UNIT     LOG_ID                        : DESCRIPTION
#_______________________________________________________________________________
MD                 .m                                      :  {F}
DENS               .g/cm3                                  :  {F}
GR                 .gAPI                                   :  {F}
ILD                .ohm.m                                  :  {F}
ILM                .ohm.m                                  :  {F}
Neu                .m3/m3                                  :  {F}
Porosity-Density   .v/v                                    :  {F}
VSH_GR             .v/v                                    :  {F}
~Ascii
# ...
1529.334   2.606543   88.29124   2.048269   2.017389   24.05489   0.02633745 0.8699027 
1529.4864  2.591084   90.7081    1.955752   1.890757   25.25006   0.03570672 0.8967566 
1529.6388  2.577277   89.42313   1.842471   1.774876   26.15224   0.04407435 0.8824792 
1529.7912  2.567413   85.16249   1.728421   1.675864   27.40039   0.05005302 0.8351388 
1529.9436  2.560339   85.41458   1.625773   1.593668   29.48832   0.05434021 0.8379398 
1530.096   2.557674   89.81146   1.543606   1.529749   31.09029   0.05595539 0.886794  
1530.2484  2.55854    93.80429   1.487462   1.486806   31.84691   0.05543058 0.9311588 
1530.4008  2.562435   96.33677   1.457736   1.468018   32.41314   0.05306966 0.9592974 
1530.5532  2.569692   96.94326   1.45415    1.475095   33.28537   0.04867178 0.9660362 
1530.7056  2.578126   95.42451   1.478268   1.508573   34.31553   0.04355994 0.9491613 
1530.858   2.588377   92.16629   1.52875    1.569293   34.30313   0.03734719 0.9129588 
1531.0104  2.604053   89.1104    1.599732   1.65778    33.66263   0.02784657 0.8790045 
1531.1628  2.62002    88.1296    1.680558   1.766467   33.63783   0.01816995 0.8681067 
1531.3152  2.623527   87.55981   1.758088   1.872819   33.2722    0.01604412 0.8617756 
1531.4676  2.613392   85.997     1.81997    1.940358   32.03671   0.02218694 0.8444111 
1531.62    2.601659   83.95903   1.857904   1.94271    31.47789   0.0292976  0.821767  
1531.7724  2.591232   83.50008   1.86378    1.88369    31.62152   0.03561713 0.8166675 
1531.9248  2.581708   86.85474   1.831965   1.789491   31.07828   0.04138888 0.8539415 
1532.0772  2.577617   90.54846   1.764972   1.687386   30.51882   0.04386829 0.8949829 
1532.2296  2.578515   91.11056   1.677692   1.592886   30.91632   0.04332412 0.9012284 
1532.382   2.581198   89.02994   1.587007   1.511795   31.46447   0.0416984  0.8781104 
1532.5344  2.58103    85.78709   1.500342   1.445683   32.47545   0.04179983 0.8420787 
1532.6868  2.576175   84.62014   1.420162   1.392542   34.30509   0.04474249 0.8291126 
1532.8392  2.575936   89.20947   1.3519     1.349006   35.56829   0.04488714 0.8801053 
1532.9916  2.584862   96.24522   1.299007   1.309973   35.65093   0.03947778 0.9582803 
1533.144   2.593389   100.0409   1.263144   1.272665   35.34897   0.03430959 1         
1533.2964  2.591606   101.8202   1.242966   1.238661   35.21027   0.03539027 1         
1533.4488  2.580014   100.6838   1.235284   1.214257   35.27434   0.04241582 1         
1533.6012  2.565273   95.8143    1.234833   1.205665   35.07327   0.05135001 0.9534922 
1533.7536  2.551526   92.88928   1.234827   1.21412    34.59751   0.05968151 0.920992  
1533.906   2.542006   93.50423   1.229524   1.232135   34.7513    0.06545066 0.9278249 
1534.0584  2.537038   92.55334   1.217977   1.244739   35.00034   0.06846167 0.9172593 
1534.2108  2.536511   91.65455   1.203955   1.237334   35.61194   0.06878144 0.9072728 
1534.3632  2.540511   91.94459   1.190951   1.207466   36.69657   0.06635709 0.9104954 
1534.5156  2.54169    89.1144    1.180484   1.166948   36.36595   0.06564256 0.8790489 
1534.668   2.535592   84.78078   1.170644   1.131114   35.84819   0.06933848 0.8308975 
1534.8204  2.528252   84.09183   1.157446   1.109027   37.2804    0.07378665 0.8232425 
1534.9728  2.527456   86.57598   1.139827   1.100351   39.74955   0.07426912 0.8508443 
1535.1252  2.532101   88.12479   1.120325   1.099256   40.98287   0.07145404 0.8680532 
1535.2776  2.531228   89.01809   1.102679   1.098842   40.07306   0.0719829  0.8779787 
1535.43    2.518758   91.01353   1.090714   1.094178   38.18213   0.07954077 0.9001504 
1535.5824  2.505204   91.28887   1.084451   1.083625   36.98867   0.08775523 0.9032097 
1535.7348  2.505457   88.71143   1.080287   1.069292   36.64491   0.08760192 0.8745714 
1535.8872  2.519729   85.54429   1.073291   1.055608   36.74968   0.07895238 0.839381  
1536.0396  2.528942   82.95339   1.059893   1.045626   37.46161   0.07336862 0.8105932 
1536.192   2.522438   82.32978   1.041626   1.038844   38.41364   0.07731061 0.8036642 
1536.3444  2.52148    84.62105   1.023417   1.032531   38.08747   0.0778912  0.8291228 
1536.4968  2.53955    88.5795    1.011083   1.026455   37.08046   0.06693941 0.8731055 
1536.6492  2.555924   91.07362   1.00882    1.025423   37.37108   0.05701599 0.900818  
1536.8016  2.557394   90.74268   1.016589   1.036599   37.66774   0.05612518 0.8971409 
1536.954   2.554384   90.52534   1.033011   1.064453   36.20824   0.05794901 0.894726  
1537.1064  2.551645   90.7033    1.058869   1.108893   34.75169   0.05960912 0.8967034 
1537.2588  2.551816   90.84715   1.097596   1.168713   35.40559   0.05950581 0.8983016 
1537.4112  2.560409   89.24547   1.152333   1.244699   36.28845   0.05429744 0.8805052 
1537.5636  2.569577   87.42022   1.222522   1.341488   35.92049   0.04874114 0.8602247 
1537.716   2.57764    88.67834   1.311533   1.461821   35.23771   0.04385457 0.8742037 
1537.8684  2.59951    88.11092   1.421294   1.599245   35.26914   0.03059994 0.8678991 
1538.0208  2.64206    82.02449   1.54601    1.737362   34.58331   0.004812443 0.8002721 
1538.1732  2.679803   73.92865   1.676017   1.856126   30.32926   0          0.7103183 
1538.3256  2.67278    68.25371   1.798249   1.944713   23.99945   0          0.6472634 
1538.478   2.630177   67.83127   1.890124   1.995682   20.33494   0.01201413 0.6425697 
1538.6304  2.592304   71.82547   1.925263   1.995346   21.79074   0.03496762 0.6869497 
1538.7828  2.574255   77.0159    1.890337   1.9304     25.71462   0.04590627 0.7446211 
1538.9352  2.566636   80.33305   1.8073     1.813399   28.04479   0.05052378 0.7814783 
1539.0876  2.564798   81.68326   1.715757   1.684742   28.81153   0.05163756 0.7964807 
1539.24    2.566862   83.10914   1.637446   1.582011   30.25984   0.05038651 0.8123237 
1539.3924  2.567457   83.26829   1.578419   1.522582   32.24194   0.050026   0.8140921 
1539.5448  2.564947   81.80184   1.541538   1.503862   33.49952   0.05154739 0.7977982 
1539.6972  2.561178   81.95226   1.530154   1.516855   34.18898   0.05383159 0.7994695 
1539.8496  2.554005   85.37064   1.54265    1.554618   34.83897   0.0581789  0.8374515 
1540.002   2.541042   89.24874   1.574926   1.614678   34.59769   0.06603515 0.8805416 
1540.1544  2.525959   89.40309   1.623414   1.693278   34.08372   0.07517669 0.8822566 
1540.3068  2.519221   87.12899   1.685428   1.781793   34.62133   0.07926001 0.8569888 
1540.4592  2.533308   84.91821   1.759587   1.867827   34.26617   0.07072246 0.8324245 
1540.6116  2.558188   82.96925   1.846986   1.94615    33.40122   0.05564386 0.8107694 
1540.764   2.575326   82.28356   1.949777   2.022661   33.00511   0.04525719 0.8031507 
1540.9164  2.577312   82.97271   2.063524   2.113972   32.35125   0.04405354 0.8108079 
1541.0688  2.567733   86.95016   2.180466   2.2377     32.17331   0.0498591  0.8550017 
1541.2212  2.553415   93.26357   2.297672   2.404062   32.28898   0.05853653 0.9251508 
1541.3736  2.541428   97.19688   2.417062   2.603498   32.4522    0.06580107 0.9688542 
1541.526   2.533125   98.50416   2.544343   2.811151   32.64993   0.07083315 0.9833795 
1541.6784  2.522493   97.37055   2.686598   2.997661   32.13363   0.07727724 0.9707839 
1541.8308  2.508331   95.12006   2.847787   3.148861   31.47642   0.08586016 0.9457784 
1541.9832  2.496392   94.56328   3.016046   3.271631   31.90851   0.09309566 0.939592  
1542.1356  2.490119   92.85674   3.168204   3.377148   33.24083   0.0968975  0.9206305 
1542.288   2.488867   86.43079   3.286467   3.472927   34.13538   0.09765653 0.8492311 
1542.4404  2.487648   79.50225   3.359673   3.558042   33.97825   0.09839549 0.7722473 
1542.5928  2.480524   76.50285   3.391904   3.626826   33.66568   0.1027127  0.7389206 
1542.7452  2.471142   79.96413   3.39622    3.668761   35.0494    0.1083991  0.7773793 
1542.8976  2.467823   87.81419   3.388127   3.673906   37.05188   0.1104103  0.8646021 
1543.05    2.469717   92.24541   3.378173   3.6394     36.70335   0.1092625  0.913838  
