~Version
 VERS              .         3.0                           : CWLS LOG ASCII STANDARD - VERSION 3.0
 WRAP              .         NO                            : ONE LINE PER DEPTH STEP
 DLM               .         SPACE                         : DELIMITING CHARACTER(SPACE TAB OR COMMA)
~Well Information
#_______________________________________________________________________________
#
#PARAMETER_NAME    .UNIT     VALUE                         : DESCRIPTION
#_______________________________________________________________________________
STRT               .m        3.81                          : First reference value
STOP               .m        2245.7664                     : Last reference value
STEP               .m        0.1524                        : Step increment
NULL               .         -9999                         : Missing value
COMP               .                                       : Company
WELL               .         1-ALV-2-BA                    : Well name
FLD                .         REC-T-155                     : Field
LOC                .                                       : Location
SRVC               .                                       : Service Company
CTRY               .                                       : Country
DATE               .                                       : Service Date
X                  .                                       : X or East-West coordinate
Y                  .                                       : Y or North South coordinate
GDAT               .                                       : Geodetic Datum
HZCS               .                                       : Horizontal Co-ordinate System
COMPANY            .         ALVORADA                      : 
CREATION-TIME      .         2021/8/18 13_56               : 
FIELD-NAME         .         REC-T-155                     : 
FILE-ID            .         ALV2FM.001                    : 
FILE-NUMBER        .         2                             : 
FILE-SET-NAME      .         LIS-TO-DLIS-CONVERSION        : 
FILE-SET-NUMBER    .         8788                          : 
FILE-TYPE          .         OAKSFT                        : 
NAME-SPACE-NAME    .                                       : 
NAME-SPACE-VERSION .         0                             : 
PRODUCER-CODE      .         440                           : 
PRODUCER-NAME      .         Schlumberger                  : 
PRODUCT            .         DLIS/U                        : 
PROGRAMS           .         LIS-TO-DLIS                   : 
VERSION            .         0.1                           : 
WELL-ID            .         20240024159                   : 
WELL-NAME          .         1-ALV-2-BA                    : 
~Parameter Information Block
#_______________________________________________________________________________
#
#PARAMETER_NAME    .UNIT     VALUE                         : DESCRIPTION
#_______________________________________________________________________________
SET                .         Merged_Set                    : 
TLFamily_DENS      .         Bulk Density                  : 
TLFamily_GR        .         Gamma Ray                     : 
TLFamily_ILD       .         Deep Resistivity              : 
TLFamily_ILM       .         Medium Resistivity            : 
TLFamily_MD        .         Measured Depth                : 
TLFamily_Neu       .         Neutron Porosity              : 
TLFamily_Porosity-Density .         Porosity                      : 
TLFamily_VSH_GR    .         Shale Volume                  : 
~Curve Information
#_______________________________________________________________________________
#
#LOGNAME           .UNIT     LOG_ID                        : DESCRIPTION
#_______________________________________________________________________________
MD                 .m                                      :  {F}
DENS               .g/cm3                                  :  {F}
GR                 .gAPI                                   :  {F}
ILD                .ohm.m                                  :  {F}
ILM                .ohm.m                                  :  {F}
Neu                .m3/m3                                  :  {F}
Porosity-Density   .v/v                                    :  {F}
VSH_GR             .v/v                                    :  {F}
~Ascii
# ...
1168.7556  2.444616   50.22444   1.696615   1.702623   20.33288   0.124475   0.4469382 
1168.908   2.45066    52.63228   1.701962   1.710976   20.09951   0.1208119  0.473692  
1169.0604  2.456157   55.11803   1.707806   1.718189   19.63188   0.1174807  0.5013115 
1169.2128  2.463317   53.52919   1.713914   1.723439   19.34614   0.113141   0.4836576 
1169.3652  2.467228   51.27878   1.719516   1.726586   19.8696    0.1107709  0.4586531 
1169.5176  2.465036   51.28      1.724267   1.728254   20.22804   0.1120996  0.4586667 
1169.67    2.459688   51.45034   1.727289   1.729121   19.72745   0.1153408  0.4605593 
1169.8224  2.454374   51.45544   1.728397   1.72922    19.68602   0.1185611  0.4606161 
1169.9748  2.449655   51.38167   1.727697   1.728049   19.79511   0.1214215  0.4597964 
1170.1272  2.449844   50.7506    1.725494   1.725221   19.44715   0.1213065  0.4527844 
1170.2796  2.457223   50.71587   1.72158    1.72085    19.27197   0.1168346  0.4523985 
1170.432   2.463621   52.0644    1.716035   1.715362   19.57759   0.1129571  0.4673823 
1170.5844  2.462862   52.93924   1.709703   1.709125   20.21407   0.1134169  0.4771027 
1170.7368  2.459088   52.7285    1.703483   1.702509   20.41379   0.1157041  0.4747611 
1170.8892  2.45588    53.25369   1.697348   1.696019   19.91476   0.1176487  0.4805965 
1171.0416  2.454254   53.5769    1.690912   1.690521   19.34173   0.1186338  0.4841878 
1171.194   2.453815   53.00752   1.683554   1.686736   19.17579   0.1189002  0.4778614 
1171.3464  2.455129   52.68518   1.674812   1.684651   19.69842   0.1181037  0.4742798 
1171.4988  2.457106   52.96219   1.665603   1.683376   20.39355   0.1169053  0.4773577 
1171.6512  2.455139   54.15213   1.658483   1.682204   20.5073    0.1180977  0.4905792 
1171.8036  2.450714   55.50522   1.656379   1.681762   20.00085   0.1207797  0.5056136 
1171.956   2.450808   55.75591   1.661151   1.684563   19.84405   0.1207226  0.508399  
1172.1084  2.455526   53.15292   1.67265    1.694344   20.19512   0.1178629  0.4794769 
1172.2608  2.459043   48.21315   1.689307   1.714049   19.91142   0.1157318  0.4245906 
1172.4132  2.459203   47.04079   1.708222   1.743343   19.35522   0.1156349  0.4115643 
1172.5656  2.463106   51.97326   1.725374   1.776705   19.51597   0.1132692  0.4663696 
1172.718   2.478894   55.20067   1.737602   1.803559   19.85749   0.103701   0.5022297 
1172.8704  2.504691   51.41049   1.744541   1.813626   19.37913   0.08806618 0.4601166 
1173.0228  2.524008   47.36796   1.746467   1.803213   18.29798   0.07635868 0.4151995 
1173.1752  2.51835    49.58148   1.743603   1.778412   17.29746   0.07978771 0.4397942 
1173.3276  2.488686   55.10507   1.737614   1.750654   16.73663   0.09776621 0.5011675 
1173.48    2.452479   60.16261   1.730622   1.728573   17.30009   0.1197097  0.5573623 
1173.6324  2.424211   63.65161   1.722069   1.713598   19.25115   0.1368421  0.596129  
1173.7848  2.408321   65.35646   1.706109   1.699618   21.63348   0.1464721  0.6150718 
1173.9372  2.3988     65.80688   1.672784   1.677845   23.86239   0.1522422  0.6200764 
1174.0896  2.388555   66.36499   1.624831   1.642677   25.04843   0.1584517  0.6262777 
1174.242   2.382819   66.21527   1.577665   1.596894   24.76763   0.1619278  0.6246141 
1174.3944  2.389389   63.12114   1.539999   1.550148   24.93033   0.1579464  0.5902349 
1174.5468  2.404615   59.17598   1.513902   1.512915   26.34582   0.1487184  0.5463998 
1174.6992  2.416873   55.07932   1.49807    1.492183   27.61579   0.1412889  0.5008814 
1174.8516  2.419461   48.57267   1.48758    1.488715   26.78356   0.1397209  0.4285852 
1175.004   2.416115   43.8323    1.478386   1.497986   24.86575   0.1417488  0.3759144 
1175.1564  2.41413    43.70611   1.471014   1.511641   23.96454   0.1429516  0.3745123 
1175.3088  2.418644   43.08483   1.471326   1.521285   23.78098   0.1402158  0.3676092 
1175.4612  2.43136    39.32221   1.486764   1.524837   23.27504   0.132509   0.3258024 
1175.6136  2.446006   36.36048   1.521183   1.530496   22.01617   0.1236326  0.2928942 
1175.766   2.454384   37.18642   1.572485   1.553262   19.94569   0.118555   0.3020713 
1175.9184  2.456273   41.11295   1.631381   1.604585   18.13603   0.1174105  0.3456994 
1176.0708  2.457126   46.26965   1.684383   1.68208    17.70371   0.1168932  0.4029961 
1176.2232  2.459295   51.09726   1.725834   1.765308   18.49596   0.1155788  0.4566362 
1176.3756  2.460439   54.95421   1.757686   1.825918   19.51177   0.1148857  0.4994912 
1176.528   2.460526   57.23936   1.782104   1.847818   19.92345   0.1148328  0.5248818 
1176.6804  2.46155    57.55718   1.800071   1.83744    19.6398    0.114212   0.5284131 
1176.8328  2.459777   55.03736   1.810891   1.813986   19.31062   0.1152865  0.5004151 
1176.9852  2.452901   49.90649   1.813454   1.793751   19.5237    0.1194541  0.4434054 
1177.1376  2.446935   45.80979   1.80844    1.783135   19.89915   0.1230696  0.3978865 
1177.29    2.444945   46.48021   1.797712   1.780314   19.73437   0.1242756  0.4053356 
1177.4424  2.443828   49.8582    1.784109   1.77973    19.46081   0.1249529  0.4428689 
1177.5948  2.441372   51.68055   1.770651   1.776474   19.86073   0.1264415  0.4631173 
1177.7472  2.437546   50.53209   1.759188   1.768692   20.75815   0.1287599  0.4503565 
1177.8996  2.433637   49.1101    1.750454   1.757738   21.07057   0.1311289  0.4345567 
1178.052   2.432256   49.99107   1.743459   1.746168   20.38898   0.131966   0.4443452 
1178.2044  2.435906   52.02827   1.736641   1.736245   19.3864    0.1297539  0.4669808 
1178.3568  2.442442   54.30045   1.72977    1.729176   19.04173   0.1257928  0.4922272 
1178.5092  2.445153   55.88415   1.723092   1.725024   19.25094   0.12415    0.5098239 
1178.6616  2.443535   55.45033   1.716657   1.723006   19.13006   0.1251304  0.5050036 
1178.814   2.445418   53.59599   1.711414   1.721874   18.85028   0.1239894  0.4843999 
1178.9664  2.452627   52.48811   1.708972   1.720922   19.32629   0.1196198  0.4720901 
1179.1188  2.457833   53.66093   1.709808   1.720467   19.7326    0.1164649  0.4851215 
1179.2712  2.457292   55.84887   1.712867   1.721468   19.41287   0.1167927  0.5094319 
1179.4236  2.456087   56.26316   1.71642    1.724665   19.30974   0.117523   0.5140351 
1179.576   2.457317   54.14796   1.719078   1.729561   19.34381   0.1167777  0.4905328 
1179.7284  2.458552   53.14263   1.720268   1.734372   19.32127   0.1160289  0.4793626 
1179.8808  2.459264   54.51263   1.720392   1.736852   19.22905   0.1155979  0.4945848 
1180.0332  2.459625   55.14999   1.720705   1.735513   19.29958   0.1153787  0.5016665 
1180.1856  2.458222   54.85132   1.721469   1.731046   19.58834   0.1162293  0.498348  
1180.338   2.454273   55.31415   1.721966   1.726064   19.74699   0.1186228  0.5034906 
1180.4904  2.44926    57.12067   1.721879   1.723162   19.76018   0.1216604  0.523563  
1180.6428  2.44752    58.00735   1.721363   1.723524   19.80643   0.122715   0.533415  
1180.7952  2.45032    57.81288   1.721754   1.726622   20.10985   0.1210179  0.5312542 
1180.9476  2.45346    57.65166   1.725259   1.731329   20.31334   0.1191149  0.5294629 
1181.1     2.455731   54.70007   1.732267   1.737268   20.03205   0.1177389  0.4966675 
1181.2524  2.45536    51.35407   1.742068   1.744745   19.54139   0.1179634  0.4594896 
1181.4048  2.448216   51.82858   1.753328   1.753659   19.42489   0.1222931  0.464762  
1181.5572  2.438757   54.11193   1.763871   1.762481   19.65918   0.1280259  0.4901326 
1181.7096  2.43559    55.53185   1.77232    1.768806   19.72185   0.1299455  0.5059094 
1181.862   2.43839    53.79023   1.77802    1.770775   19.79512   0.1282487  0.4865581 
1182.0144  2.442702   50.22205   1.780317   1.768316   19.70738   0.1256353  0.4469117 
1182.1668  2.447399   49.01406   1.779112   1.7629     18.83987   0.1227885  0.4334895 
1182.3192  2.450917   50.49451   1.773788   1.756229   18.05885   0.1206563  0.449939  
1182.4716  2.452919   52.92887   1.764249   1.749336   18.28993   0.1194432  0.4769874 
