~Version
 VERS              .         3.0                           : CWLS LOG ASCII STANDARD - VERSION 3.0
 WRAP              .         NO                            : ONE LINE PER DEPTH STEP
 DLM               .         SPACE                         : DELIMITING CHARACTER(SPACE TAB OR COMMA)
~Well Information
#_______________________________________________________________________________
#
#PARAMETER_NAME    .UNIT     VALUE                         : DESCRIPTION
#_______________________________________________________________________________
STRT               .m        3.81                          : First reference value
STOP               .m        2245.7664                     : Last reference value
STEP               .m        0.1524                        : Step increment
NULL               .         -9999                         : Missing value
COMP               .                                       : Company
WELL               .         1-ALV-2-BA                    : Well name
FLD                .         REC-T-155                     : Field
LOC                .                                       : Location
SRVC               .                                       : Service Company
CTRY               .                                       : Country
DATE               .                                       : Service Date
X                  .                                       : X or East-West coordinate
Y                  .                                       : Y or North South coordinate
GDAT               .                                       : Geodetic Datum
HZCS               .                                       : Horizontal Co-ordinate System
COMPANY            .         ALVORADA                      : 
CREATION-TIME      .         2021/8/18 13_56               : 
FIELD-NAME         .         REC-T-155                     : 
FILE-ID            .         ALV2FM.001                    : 
FILE-NUMBER        .         2                             : 
FILE-SET-NAME      .         LIS-TO-DLIS-CONVERSION        : 
FILE-SET-NUMBER    .         8788                          : 
FILE-TYPE          .         OAKSFT                        : 
NAME-SPACE-NAME    .                                       : 
NAME-SPACE-VERSION .         0                             : 
PRODUCER-CODE      .         440                           : 
PRODUCER-NAME      .         Schlumberger                  : 
PRODUCT            .         DLIS/U                        : 
PROGRAMS           .         LIS-TO-DLIS                   : 
VERSION            .         0.1                           : 
WELL-ID            .         20240024159                   : 
WELL-NAME          .         1-ALV-2-BA                    : 
~Parameter Information Block
#_______________________________________________________________________________
#
#PARAMETER_NAME    .UNIT     VALUE                         : DESCRIPTION
#_______________________________________________________________________________
SET                .         Merged_Set                    : 
TLFamily_DENS      .         Bulk Density                  : 
TLFamily_GR        .         Gamma Ray                     : 
TLFamily_ILD       .         Deep Resistivity              : 
TLFamily_ILM       .         Medium Resistivity            : 
TLFamily_MD        .         Measured Depth                : 
TLFamily_Neu       .         Neutron Porosity              : 
TLFamily_Porosity-Density .         Porosity                      : 
TLFamily_VSH_GR    .         Shale Volume                  : 
~Curve Information
#_______________________________________________________________________________
#
#LOGNAME           .UNIT     LOG_ID                        : DESCRIPTION
#_______________________________________________________________________________
MD                 .m                                      :  {F}
DENS               .g/cm3                                  :  {F}
GR                 .gAPI                                   :  {F}
ILD                .ohm.m                                  :  {F}
ILM                .ohm.m                                  :  {F}
Neu                .m3/m3                                  :  {F}
Porosity-Density   .v/v                                    :  {F}
VSH_GR             .v/v                                    :  {F}
~Ascii
# ...
697.23     -9999      70.06193   1.719496   1.750634   -9999      -9999      0.6673548 
697.3824   -9999      68.22063   1.698568   1.717127   -9999      -9999      0.6468958 
697.5348   -9999      65.82845   1.677824   1.675478   -9999      -9999      0.6203161 
697.6872   -9999      64.26549   1.66217    1.633159   -9999      -9999      0.6029499 
697.8396   -9999      66.32071   1.655504   1.599248   -9999      -9999      0.6257856 
697.992    -9999      68.65063   1.657268   1.581166   -9999      -9999      0.6516736 
698.1444   -9999      67.13418   1.660623   1.582115   -9999      -9999      0.6348242 
698.2968   -9999      65.21344   1.658249   1.59823    -9999      -9999      0.6134827 
698.4492   -9999      66.97054   1.649268   1.6175     -9999      -9999      0.633006  
698.6016   -9999      69.70267   1.632837   1.624842   -9999      -9999      0.663363  
698.754    -9999      68.7618    1.608195   1.610119   -9999      -9999      0.6529089 
698.9064   -9999      66.8569    1.576806   1.574261   -9999      -9999      0.6317434 
699.0588   -9999      69.18504   1.541595   1.52749    -9999      -9999      0.6576115 
699.2112   -9999      67.99886   1.505816   1.48131    -9999      -9999      0.6444318 
699.3636   -9999      66.25878   1.481752   1.443705   -9999      -9999      0.6250976 
699.516    -9999      68.07224   1.474023   1.418684   -9999      -9999      0.645247  
699.6684   -9999      70.74239   1.483698   1.409643   -9999      -9999      0.6749154 
699.8208   -9999      73.92638   1.505662   1.421833   -9999      -9999      0.7102932 
699.9732   -9999      74.95383   1.52919    1.457976   -9999      -9999      0.7217092 
700.1256   -9999      71.64582   1.553164   1.510486   -9999      -9999      0.6849536 
700.278    -9999      66.20438   1.57695    1.559391   -9999      -9999      0.6244931 
700.4304   -9999      58.11652   1.59614    1.583787   -9999      -9999      0.534628  
700.5828   -9999      56.76747   1.594391   1.579093   -9999      -9999      0.5196386 
700.7352   -9999      59.21119   1.561421   1.557064   -9999      -9999      0.546791  
700.8876   -9999      59.71827   1.510583   1.529954   -9999      -9999      0.5524251 
701.04     -9999      66.69344   1.469466   1.501103   -9999      -9999      0.6299272 
701.1924   -9999      75.26054   1.461063   1.471001   -9999      -9999      0.7251171 
701.3448   -9999      78.85296   1.495868   1.44751    -9999      -9999      0.7650329 
701.4972   -9999      74.22033   1.57497    1.448734   -9999      -9999      0.7135592 
701.6496   -9999      64.31205   1.677772   1.498276   -9999      -9999      0.6034672 
701.802    -9999      61.52298   1.774167   1.618276   -9999      -9999      0.5724776 
701.9544   -9999      61.18791   1.851539   1.818061   -9999      -9999      0.5687546 
702.1068   -9999      58.29862   1.9339     2.064055   -9999      -9999      0.5366513 
702.2592   -9999      58.37773   2.053164   2.267008   -9999      -9999      0.5375303 
702.4116   -9999      63.31786   2.214124   2.343924   -9999      -9999      0.5924206 
702.564    -9999      69.12027   2.387      2.328024   -9999      -9999      0.6568919 
702.7164   -9999      68.48235   2.526619   2.32171    -9999      -9999      0.6498038 
702.8688   -9999      66.72765   2.595021   2.39485    -9999      -9999      0.6303072 
703.0212   -9999      67.14772   2.629598   2.559728   -9999      -9999      0.6349747 
703.1736   -9999      64.43262   2.661573   2.775872   -9999      -9999      0.6048068 
703.326    -9999      63.84761   2.706271   2.9624     -9999      -9999      0.5983068 
703.4784   -9999      72.04052   2.753007   3.032789   -9999      -9999      0.6893391 
703.6308   -9999      77.55849   2.767905   2.967641   -9999      -9999      0.7506499 
703.7832   -9999      74.3467    2.724812   2.82275    -9999      -9999      0.7149634 
703.9356   -9999      68.88631   2.628785   2.661861   -9999      -9999      0.6542923 
704.088    -9999      63.88885   2.515279   2.519859   -9999      -9999      0.5987651 
704.2404   -9999      62.21564   2.404314   2.404342   -9999      -9999      0.5801739 
704.3928   -9999      63.11835   2.301958   2.319871   -9999      -9999      0.5902039 
704.5452   -9999      62.45335   2.200877   2.263296   -9999      -9999      0.5828151 
704.6976   -9999      61.79165   2.111494   2.222292   -9999      -9999      0.5754627 
704.85     -9999      61.24331   2.059364   2.177133   -9999      -9999      0.5693702 
705.0024   -9999      62.05771   2.053791   2.117007   -9999      -9999      0.578419  
705.1548   -9999      63.7135    2.103638   2.054663   -9999      -9999      0.5968167 
705.3072   -9999      65.15678   2.193868   2.023158   -9999      -9999      0.6128531 
705.4596   -9999      67.24261   2.274327   2.058389   -9999      -9999      0.6360289 
705.612    -9999      66.93176   2.327128   2.179026   -9999      -9999      0.632575  
705.7644   -9999      60.0327    2.354481   2.362375   -9999      -9999      0.5559189 
705.9168   -9999      51.88078   2.368483   2.532562   -9999      -9999      0.465342  
706.0692   -9999      52.03329   2.377707   2.590811   -9999      -9999      0.4670366 
706.2216   -9999      55.60619   2.37218    2.513505   -9999      -9999      0.5067354 
706.374    -9999      58.65096   2.328092   2.363361   -9999      -9999      0.5405662 
706.5264   -9999      62.50683   2.244154   2.211965   -9999      -9999      0.5834092 
706.6788   -9999      62.6374    2.137489   2.090967   -9999      -9999      0.58486   
706.8312   -9999      61.99061   2.034212   2.004002   -9999      -9999      0.5776734 
706.9836   -9999      62.3688    1.946181   1.940421   -9999      -9999      0.5818755 
707.136    -9999      63.56387   1.888925   1.891567   -9999      -9999      0.5951541 
707.2884   -9999      67.19954   1.852143   1.852289   -9999      -9999      0.6355504 
707.4408   -9999      72.48483   1.830955   1.821924   -9999      -9999      0.6942759 
707.5932   -9999      75.30062   1.814853   1.800563   -9999      -9999      0.7255625 
707.7456   -9999      74.66896   1.798303   1.788385   -9999      -9999      0.718544  
707.898    -9999      70.36574   1.783407   1.782836   -9999      -9999      0.6707304 
708.0504   -9999      64.411     1.768373   1.780061   -9999      -9999      0.6045666 
708.2028   -9999      62.65453   1.756197   1.775145   -9999      -9999      0.5850503 
708.3552   -9999      66.22136   1.747756   1.763591   -9999      -9999      0.6246818 
708.5076   -9999      68.36677   1.745784   1.744682   -9999      -9999      0.6485196 
708.66     -9999      67.89044   1.751487   1.722194   -9999      -9999      0.6432272 
708.8124   -9999      63.94796   1.761432   1.702622   -9999      -9999      0.5994218 
708.9648   -9999      61.3019    1.77281    1.691762   -9999      -9999      0.5700211 
709.1172   -9999      66.50244   1.784078   1.694621   -9999      -9999      0.6278049 
709.2696   -9999      69.37086   1.795287   1.714405   -9999      -9999      0.6596762 
709.422    -9999      65.91084   1.809979   1.749116   -9999      -9999      0.6212316 
709.5744   -9999      64.64963   1.826083   1.790377   -9999      -9999      0.6072181 
709.7268   -9999      64.28358   1.836081   1.8242     -9999      -9999      0.603151  
709.8792   -9999      60.97296   1.831459   1.837328   -9999      -9999      0.5663663 
710.0316   -9999      58.88713   1.808157   1.822324   -9999      -9999      0.5431904 
710.184    -9999      58.88409   1.771971   1.779621   -9999      -9999      0.5431566 
710.3364   -9999      57.82796   1.730943   1.717469   -9999      -9999      0.5314217 
710.4888   -9999      58.96156   1.691944   1.647386   -9999      -9999      0.5440174 
710.6412   -9999      63.24023   1.657951   1.582684   -9999      -9999      0.5915581 
710.7936   -9999      69.26496   1.62993    1.535316   -9999      -9999      0.6584996 
710.946    -9999      69.05328   1.599949   1.511825   -9999      -9999      0.6561475 
