~Version
 VERS              .         3.0                           : CWLS LOG ASCII STANDARD - VERSION 3.0
 WRAP              .         NO                            : ONE LINE PER DEPTH STEP
 DLM               .         SPACE                         : DELIMITING CHARACTER(SPACE TAB OR COMMA)
~Well Information
#_______________________________________________________________________________
#
#PARAMETER_NAME    .UNIT     VALUE                         : DESCRIPTION
#_______________________________________________________________________________
STRT               .m        3.81                          : First reference value
STOP               .m        2245.7664                     : Last reference value
STEP               .m        0.1524                        : Step increment
NULL               .         -9999                         : Missing value
COMP               .                                       : Company
WELL               .         1-ALV-2-BA                    : Well name
FLD                .         REC-T-155                     : Field
LOC                .                                       : Location
SRVC               .                                       : Service Company
CTRY               .                                       : Country
DATE               .                                       : Service Date
X                  .                                       : X or East-West coordinate
Y                  .                                       : Y or North South coordinate
GDAT               .                                       : Geodetic Datum
HZCS               .                                       : Horizontal Co-ordinate System
COMPANY            .         ALVORADA                      : 
CREATION-TIME      .         2021/8/18 13_56               : 
FIELD-NAME         .         REC-T-155                     : 
FILE-ID            .         ALV2FM.001                    : 
FILE-NUMBER        .         2                             : 
FILE-SET-NAME      .         LIS-TO-DLIS-CONVERSION        : 
FILE-SET-NUMBER    .         8788                          : 
FILE-TYPE          .         OAKSFT                        : 
NAME-SPACE-NAME    .                                       : 
NAME-SPACE-VERSION .         0                             : 
PRODUCER-CODE      .         440                           : 
PRODUCER-NAME      .         Schlumberger                  : 
PRODUCT            .         DLIS/U                        : 
PROGRAMS           .         LIS-TO-DLIS                   : 
VERSION            .         0.1                           : 
WELL-ID            .         20240024159                   : 
WELL-NAME          .         1-ALV-2-BA                    : 
~Parameter Information Block
#_______________________________________________________________________________
#
#PARAMETER_NAME    .UNIT     VALUE                         : DESCRIPTION
#_______________________________________________________________________________
SET                .         Merged_Set                    : 
TLFamily_DENS      .         Bulk Density                  : 
TLFamily_GR        .         Gamma Ray                     : 
TLFamily_ILD       .         Deep Resistivity              : 
TLFamily_ILM       .         Medium Resistivity            : 
TLFamily_MD        .         Measured Depth                : 
TLFamily_Neu       .         Neutron Porosity              : 
TLFamily_Porosity-Density .         Porosity                      : 
TLFamily_VSH_GR    .         Shale Volume                  : 
~Curve Information
#_______________________________________________________________________________
#
#LOGNAME           .UNIT     LOG_ID                        : DESCRIPTION
#_______________________________________________________________________________
MD                 .m                                      :  {F}
DENS               .g/cm3                                  :  {F}
GR                 .gAPI                                   :  {F}
ILD                .ohm.m                                  :  {F}
ILM                .ohm.m                                  :  {F}
Neu                .m3/m3                                  :  {F}
Porosity-Density   .v/v                                    :  {F}
VSH_GR             .v/v                                    :  {F}
~Ascii
# ...
2222.754   2.56882    62.75409   8.302068   11.96172   1.993935   0.0492002  0.5861566 
2222.9064  2.573265   72.42228   7.377127   9.731288   1.774315   0.04650607 0.6935809 
2223.0588  2.568582   93.78343   6.329058   7.317879   1.820669   0.04934412 0.930927  
2223.2112  2.553104   123.9064   5.311589   5.383056   2.933598   0.05872466 1         
2223.3636  2.533485   140.9134   4.396899   4.059334   4.648489   0.07061525 1         
2223.516   2.51744    128.7442   3.617537   3.202393   5.698857   0.08033969 1         
2223.6684  2.506252   99.87782   2.989486   2.635233   6.11028    0.08712002 0.9986424 
2223.8208  2.493497   75.83498   2.514755   2.25107    6.638198   0.09485027 0.7314997 
2223.9732  2.480497   63.89082   2.170804   1.982972   7.321916   0.1027292  0.598787  
2224.1256  2.474099   60.68335   1.925903   1.7974     7.900427   0.1066069  0.5631483 
2224.278   2.473094   60.542     1.755198   1.675366   8.660193   0.107216   0.5615777 
2224.4304  2.477135   58.56454   1.638282   1.603581   9.73926    0.1047665  0.539606  
2224.5828  2.484364   54.22587   1.560346   1.56959    10.71725   0.1003853  0.4913986 
2224.7352  2.483745   51.74495   1.518276   1.561861   10.76879   0.1007606  0.4638327 
2224.8876  2.467503   51.97668   1.513064   1.572704   9.95339    0.1106042  0.4664076 
2225.04    2.443929   51.74958   1.54375    1.602187   9.275704   0.1248914  0.4638842 
2225.1924  2.425976   50.8327    1.605449   1.655578   9.273435   0.1357724  0.4536967 
2225.3448  2.419098   51.93597   1.689229   1.736285   9.818299   0.1399407  0.4659553 
2225.4972  2.423934   55.44809   1.786056   1.839786   10.22657   0.1370101  0.5049787 
2225.6496  2.438417   58.19552   1.885621   1.951908   9.97036    0.128232   0.5355058 
2225.802   2.453338   58.01349   1.974319   2.051615   9.674225   0.1191892  0.5334833 
2225.9544  2.458009   56.3643    2.02732    2.114267   9.703999   0.1163582  0.515159  
2226.1068  2.452203   55.97208   2.023128   2.11472    9.679325   0.119877   0.5108008 
2226.2592  2.444909   57.08537   1.964306   2.042644   9.428543   0.1242977  0.5231708 
2226.4116  2.44201    57.28133   1.873036   1.915024   9.110948   0.1260546  0.5253481 
2226.564   2.440417   56.31073   1.771625   1.771849   8.885813   0.1270203  0.5145637 
2226.7164  2.434228   56.26936   1.679165   1.652386   8.997807   0.1307708  0.5141039 
2226.8688  2.423226   56.75514   1.610543   1.578651   9.64879    0.1374386  0.5195016 
2227.0212  2.416008   56.83481   1.575031   1.558302   10.53318   0.1418135  0.5203868 
2227.1736  2.420716   57.02184   1.580064   1.594153   11.05503   0.1389602  0.5224649 
2227.326   2.436999   56.87758   1.621998   1.68825    11.32576   0.1290914  0.520862  
2227.4784  2.458241   56.51617   1.684156   1.832544   11.74403   0.1162175  0.5168464 
2227.6308  2.477433   56.78636   1.754832   1.994677   12.03971   0.1045861  0.5198485 
2227.7832  2.486627   -9999      1.822461   2.108097   11.83781   0.09901422 -9999     
2227.9356  2.484023   -9999      1.871022   2.118464   11.42641   0.1005921  -9999     
2228.088   2.475139   -9999      1.885143   2.032812   11.17679   0.1059763  -9999     
2228.2404  2.466367   -9999      1.852065   1.905466   11.24582   0.1112926  -9999     
2228.3928  2.454905   -9999      1.769262   1.782517   11.67822   0.1182397  -9999     
2228.5452  2.437579   -9999      1.65972    1.681449   12.03352   0.12874    -9999     
2228.6976  2.423882   -9999      1.569481   1.606478   11.85384   0.1370413  -9999     
2228.85    2.41815    -9999      1.532851   1.565355   11.4713    0.1405154  -9999     
2229.0024  2.41632    -9999      1.554274   1.57367    11.47202   0.1416245  -9999     
2229.1548  2.420496   -9999      1.627151   1.651311   11.64212   0.1390931  -9999     
2229.3072  2.440445   -9999      1.740559   1.810882   11.49214   0.1270033  -9999     
2229.4596  2.477548   -9999      1.877724   2.042184   11.22948   0.1045166  -9999     
2229.612   2.517072   -9999      2.015049   2.288773   11.27208   0.08056221 -9999     
2229.7644  2.544416   -9999      2.13007    2.45462    11.4653    0.06399024 -9999     
2229.9168  2.558475   -9999      2.212797   2.474411   11.38899   0.05547003 -9999     
2230.0692  2.563958   -9999      2.258274   2.378473   -9999      0.05214676 -9999     
2230.2216  2.565684   -9999      2.261906   2.257149   -9999      0.05110061 -9999     
2230.374   2.565182   -9999      2.23056    2.179842   -9999      0.05140478 -9999     
2230.5264  2.561204   -9999      2.196717   2.177547   -9999      0.05381584 -9999     
2230.6788  2.556756   -9999      2.199005   2.257956   -9999      0.05651185 -9999     
2230.8312  2.55351    -9999      2.26578    2.426224   -9999      0.05847902 -9999     
2230.9836  2.549794   -9999      2.422359   2.702554   -9999      0.06073113 -9999     
2231.136   2.546259   -9999      2.684388   3.137528   -9999      0.06287343 -9999     
2231.2884  2.546859   -9999      3.062172   3.797999   -9999      0.06250988 -9999     
2231.4408  2.552122   -9999      3.563406   4.714442   -9999      0.05932027 -9999     
2231.5932  2.558911   -9999      4.19222    5.789251   -9999      0.05520575 -9999     
2231.7456  2.563475   -9999      4.886047   6.682467   -9999      0.05243966 -9999     
2231.898   2.561749   -9999      5.474976   6.991974   -9999      0.05348523 -9999     
2232.0504  2.555585   -9999      5.670017   6.546338   -9999      0.05722147 -9999     
2232.2028  2.550897   -9999      5.314062   5.561372   -9999      0.06006255 -9999     
2232.3552  2.549615   -9999      4.595419   4.44874    -9999      0.06083936 -9999     
2232.5076  2.548778   -9999      3.822183   3.514577   -9999      0.06134669 -9999     
2232.66    2.546294   -9999      3.145507   2.847545   -9999      0.06285191 -9999     
2232.8124  2.542364   -9999      2.601256   2.39985    -9999      0.06523407 -9999     
2232.9648  2.538959   -9999      2.208224   2.094313   -9999      0.06729776 -9999     
2233.1172  -9999      -9999      1.965616   1.888326   -9999      -9999      -9999     
2233.2696  -9999      -9999      1.841224   1.768387   -9999      -9999      -9999     
2233.422   -9999      -9999      1.807913   1.742134   -9999      -9999      -9999     
2233.5744  -9999      -9999      1.840788   1.824081   -9999      -9999      -9999     
2233.7268  -9999      -9999      1.910776   2.014904   -9999      -9999      -9999     
2233.8792  -9999      -9999      1.9995     2.26724    -9999      -9999      -9999     
2234.0316  -9999      -9999      2.096891   2.459954   -9999      -9999      -9999     
2234.184   -9999      -9999      2.181808   2.474499   -9999      -9999      -9999     
2234.3364  -9999      -9999      2.213429   2.312881   -9999      -9999      -9999     
2234.4888  -9999      -9999      2.143472   2.069393   -9999      -9999      -9999     
2234.6412  -9999      -9999      1.966241   1.82228    -9999      -9999      -9999     
2234.7936  -9999      -9999      1.739707   1.597784   -9999      -9999      -9999     
2234.946   -9999      -9999      1.52738    1.399357   -9999      -9999      -9999     
2235.0984  -9999      -9999      1.362498   1.235589   -9999      -9999      -9999     
2235.2508  -9999      -9999      1.244666   1.115685   -9999      -9999      -9999     
2235.4032  -9999      -9999      1.155467   1.039902   -9999      -9999      -9999     
2235.5556  -9999      -9999      1.076221   0.9987313  -9999      -9999      -9999     
2235.708   -9999      -9999      0.9956234  0.9749558  -9999      -9999      -9999     
2235.8604  -9999      -9999      0.9139054  0.9459938  -9999      -9999      -9999     
2236.0128  -9999      -9999      0.8406471  0.8978307  -9999      -9999      -9999     
2236.1652  -9999      -9999      0.7845055  0.8352319  -9999      -9999      -9999     
2236.3176  -9999      -9999      0.7493302  0.7760323  -9999      -9999      -9999     
2236.47    -9999      -9999      0.7366915  0.7391772  -9999      -9999      -9999     
