~Version
 VERS              .         3.0                           : CWLS LOG ASCII STANDARD - VERSION 3.0
 WRAP              .         NO                            : ONE LINE PER DEPTH STEP
 DLM               .         SPACE                         : DELIMITING CHARACTER(SPACE TAB OR COMMA)
~Well Information
#_______________________________________________________________________________
#
#PARAMETER_NAME    .UNIT     VALUE                         : DESCRIPTION
#_______________________________________________________________________________
STRT               .m        3.81                          : First reference value
STOP               .m        2245.7664                     : Last reference value
STEP               .m        0.1524                        : Step increment
NULL               .         -9999                         : Missing value
COMP               .                                       : Company
WELL               .         1-ALV-2-BA                    : Well name
FLD                .         REC-T-155                     : Field
LOC                .                                       : Location
SRVC               .                                       : Service Company
CTRY               .                                       : Country
DATE               .                                       : Service Date
X                  .                                       : X or East-West coordinate
Y                  .                                       : Y or North South coordinate
GDAT               .                                       : Geodetic Datum
HZCS               .                                       : Horizontal Co-ordinate System
COMPANY            .         ALVORADA                      : 
CREATION-TIME      .         2021/8/18 13_56               : 
FIELD-NAME         .         REC-T-155                     : 
FILE-ID            .         ALV2FM.001                    : 
FILE-NUMBER        .         2                             : 
FILE-SET-NAME      .         LIS-TO-DLIS-CONVERSION        : 
FILE-SET-NUMBER    .         8788                          : 
FILE-TYPE          .         OAKSFT                        : 
NAME-SPACE-NAME    .                                       : 
NAME-SPACE-VERSION .         0                             : 
PRODUCER-CODE      .         440                           : 
PRODUCER-NAME      .         Schlumberger                  : 
PRODUCT            .         DLIS/U                        : 
PROGRAMS           .         LIS-TO-DLIS                   : 
VERSION            .         0.1                           : 
WELL-ID            .         20240024159                   : 
WELL-NAME          .         1-ALV-2-BA                    : 
~Parameter Information Block
#_______________________________________________________________________________
#
#PARAMETER_NAME    .UNIT     VALUE                         : DESCRIPTION
#_______________________________________________________________________________
SET                .         Merged_Set                    : 
TLFamily_DENS      .         Bulk Density                  : 
TLFamily_GR        .         Gamma Ray                     : 
TLFamily_ILD       .         Deep Resistivity              : 
TLFamily_ILM       .         Medium Resistivity            : 
TLFamily_MD        .         Measured Depth                : 
TLFamily_Neu       .         Neutron Porosity              : 
TLFamily_Porosity-Density .         Porosity                      : 
TLFamily_VSH_GR    .         Shale Volume                  : 
~Curve Information
#_______________________________________________________________________________
#
#LOGNAME           .UNIT     LOG_ID                        : DESCRIPTION
#_______________________________________________________________________________
MD                 .m                                      :  {F}
DENS               .g/cm3                                  :  {F}
GR                 .gAPI                                   :  {F}
ILD                .ohm.m                                  :  {F}
ILM                .ohm.m                                  :  {F}
Neu                .m3/m3                                  :  {F}
Porosity-Density   .v/v                                    :  {F}
VSH_GR             .v/v                                    :  {F}
~Ascii
# ...
2111.8068  2.625567   101.0358   1.903371   1.929706   32.52706   0.01480767 1         
2111.9592  2.62177    100.1231   1.873027   1.891618   32.36276   0.01710935 1         
2112.1116  2.616818   101.9524   1.847487   1.853961   32.24099   0.02011053 1         
2112.264   2.618334   102.9832   1.826402   1.821257   31.9565    0.01919139 1         
2112.4164  2.628025   100.737    1.80805    1.795655   31.66645   0.01331821 1         
2112.5688  2.637139   98.01865   1.791129   1.776098   31.95299   0.007794698 0.977985  
2112.7212  2.636508   97.44892   1.774615   1.7599     32.07347   0.008177179 0.9716547 
2112.8736  2.62592    99.08747   1.756163   1.743321   31.75041   0.01459425 0.9898608 
2113.026   2.612388   100.9665   1.733715   1.722631   32.13218   0.02279542 1         
2113.1784  2.604311   101.2783   1.707745   1.695062   33.64024   0.02769008 1         
2113.3308  2.605249   102.0869   1.678375   1.660107   34.94988   0.02712163 1         
2113.4832  2.611164   106.7655   1.642504   1.620857   34.8728    0.02353697 1         
2113.6356  2.615925   111.8348   1.598485   1.582232   33.95684   0.02065138 1         
2113.788   2.617318   111.7569   1.548234   1.548511   33.95811   0.01980752 1         
2113.9404  2.617334   109.5563   1.500333   1.521842   35.20337   0.0197977  1         
2114.0928  2.618541   108.5453   1.471957   1.506564   35.39615   0.01906597 1         
2114.2452  2.619178   108.0916   1.479814   1.513579   33.66858   0.01868002 1         
2114.3976  2.614599   109.5423   1.537472   1.56449    32.51418   0.02145507 1         
2114.55    2.60612    112.3      1.655026   1.694827   33.42098   0.02659393 1         
2114.7024  2.605659   112.1452   1.832591   1.958087   35.24128   0.02687353 1         
2114.8548  2.620041   106.278    2.073533   2.43059    36.04702   0.01815695 1         
2115.0072  2.642409   97.10373   2.414563   3.212095   33.76026   0.004600756 0.9678192 
2115.1596  2.66582    88.73415   2.933211   4.39287    29.18259   0          0.8748239 
2115.312   2.685983   80.95177   3.788849   6.044475   24.62025   0          0.788353  
2115.4644  2.690517   72.60534   5.172443   8.193831   20.51855   0          0.6956149 
2115.6168  2.676803   66.31124   7.121043   10.88256   17.32392   0          0.6256804 
2115.7692  2.661729   63.76936   9.385146   13.86787   15.60824   0          0.5974373 
2115.9216  2.658494   61.77792   11.16581   16.07235   14.66226   0          0.5753102 
2116.074   2.66486    57.41951   11.5519    16.11452   13.72591   0          0.5268834 
2116.2264  2.672119   52.65625   10.63288   14.04576   12.97995   0          0.4739584 
2116.3788  2.674058   53.06001   9.196784   11.25473   12.17096   0          0.4784445 
2116.5312  2.669771   58.64464   7.816638   8.751619   11.81319   0          0.540496  
2116.6836  2.66097    64.50521   6.660316   6.864578   12.89332   0          0.6056135 
2116.836   2.650492   72.44789   5.688813   5.541541   15.14469   0          0.6938655 
2116.9884  2.642793   83.06785   4.88086    4.624058   17.57705   0.004367973 0.811865  
2117.1408  2.642541   89.57564   4.224748   3.986876   19.68208   0.004520849 0.8841738 
2117.2932  2.64911    91.12918   3.717368   3.540698   21.76591   0.0005395485 0.9014353 
2117.4456  2.654083   93.6044    3.349698   3.228323   24.1884    0          0.9289378 
2117.598   2.652233   98.29833   3.096764   3.017449   26.33861   0          0.9810926 
2117.7504  2.64551    100.0319   2.948764   2.896149   27.96584   0.00272144 1         
2117.9028  2.639585   97.22134   2.900892   2.865053   29.05126   0.006312023 0.969126  
2118.0552  2.640834   94.46243   2.951886   2.941958   29.38443   0.005555152 0.9384714 
2118.2076  2.647845   94.90439   3.104118   3.156626   29.18323   0.001305956 0.9433821 
2118.36    2.653102   96.20954   3.36582    3.547785   27.90709   0          0.9578838 
2118.5124  2.655531   92.89523   3.753259   4.1682     25.13145   0          0.9210581 
2118.6648  2.658497   88.17199   4.274576   5.075612   22.23686   0          0.8685777 
2118.8172  2.662019   86.36236   4.934695   6.264124   20.35575   0          0.8484706 
2118.9696  2.664914   80.65827   5.714074   7.531397   18.43519   0          0.7850919 
2119.122   2.662802   66.72005   6.518762   8.440831   15.35487   0          0.6302227 
2119.2744  2.650305   52.42942   7.226409   8.688615   12.39301   0          0.4714381 
2119.4268  2.633088   48.16065   7.707093   8.418003   11.28813   0.01024998 0.4240072 
2119.5792  2.624497   54.0206    7.846846   8.027531   12.24383   0.0154566  0.4891178 
2119.7316  2.629037   61.76505   7.640095   7.760649   13.93797   0.01270496 0.5751672 
2119.884   2.636641   63.60666   7.233888   7.631665   14.25134   0.008096694 0.5956296 
2120.0364  2.63768    60.22951   6.807754   7.537117   13.03728   0.007466547 0.5581057 
2120.1888  2.633648   58.62006   6.482119   7.371984   11.9843    0.009910554 0.5402229 
2120.3412  2.626937   62.20119   6.297518   7.112749   11.82601   0.01397783 0.5800132 
2120.4936  2.62193    67.67078   6.225998   6.822429   12.40387   0.01701196 0.6407864 
2120.646   2.631386   69.59506   6.202427   6.591697   13.62518   0.0112811  0.6621674 
2120.7984  2.65371    68.02355   6.144764   6.458252   15.05342   0          0.6447061 
2120.9508  2.669807   67.85329   6.012033   6.377333   16.23251   0          0.6428143 
2121.1032  2.6681     70.32489   5.818037   6.248835   17.00666   0          0.6702766 
2121.2556  2.655733   72.59483   5.599815   5.991198   17.0169    0          0.6954982 
2121.408   2.648721   73.37534   5.379691   5.608866   16.67852   0.0007749326 0.7041705 
2121.5604  2.651387   75.94819   5.147032   5.168968   17.05252   0          0.7327576 
2121.7128  2.651181   80.70361   4.885086   4.733662   18.04314   0          0.7855956 
2121.8652  2.640026   82.75432   4.584508   4.328861   19.2514    0.006045139 0.8083813 
2122.0176  2.624216   83.31675   4.253261   3.965951   20.56925   0.01562697 0.8146306 
2122.17    2.611493   85.94094   3.907583   3.641605   21.51091   0.02333742 0.8437882 
2122.3224  2.605154   88.133     3.563161   3.347651   22.36452   0.02717957 0.8681444 
2122.4748  2.606545   90.52173   3.231171   3.074887   23.8212    0.02633658 0.8946859 
2122.6272  2.615194   94.35902   2.931435   2.820027   25.39326   0.02109441 0.9373225 
2122.7796  2.627106   98.09229   2.693215   2.594991   26.70947   0.01387538 0.9788032 
2122.932   2.634448   103.5165   2.530639   2.420412   28.52697   0.009425336 1         
2123.0844  2.631541   110.1098   2.442292   2.319426   30.54563   0.01118703 1         
2123.2368  2.624292   114.4052   2.420774   2.307466   31.56166   0.01558044 1         
2123.3892  2.623949   115.276    2.466943   2.397961   30.9893    0.01578851 1         
2123.5416  2.634609   114.7329   2.585381   2.603319   30.09985   0.009327801 1         
2123.694   2.649349   113.3595   2.773202   2.933652   29.27718   0.0003944744 1         
2123.8464  2.659434   110.955    3.017165   3.379295   27.93207   0          1         
2123.9988  2.66363    105.3574   3.307865   3.877967   26.54504   0          1         
2124.1512  2.660875   95.49272   3.618077   4.293963   25.32486   0          0.9499191 
2124.3036  2.646462   86.41476   3.903186   4.490055   23.26885   0.002144467 0.849053  
2124.456   2.627462   81.68275   4.136297   4.446248   20.91699   0.01365951 0.796475  
2124.6084  2.617252   81.2785    4.288186   4.274434   20.17332   0.01984741 0.7919833 
2124.7608  2.616532   86.21161   4.343241   4.127544   21.34696   0.02028364 0.8467957 
2124.9132  2.621917   93.83268   4.302174   4.100271   22.87447   0.01702034 0.9314742 
2125.0656  2.632324   98.7436    4.18093    4.200386   23.9693    0.01071265 0.98604   
2125.218   2.641658   101.1765   4.02768    4.352188   24.67571   0.005056063 1         
2125.3704  2.649064   99.88306   3.911206   4.437673   24.08617   0.0005672917 0.9987007 
2125.5228  2.658068   94.52032   3.87564    4.395358   22.08055   0          0.9391147 
