~Version
 VERS              .         3.0                           : CWLS LOG ASCII STANDARD - VERSION 3.0
 WRAP              .         NO                            : ONE LINE PER DEPTH STEP
 DLM               .         SPACE                         : DELIMITING CHARACTER(SPACE TAB OR COMMA)
~Well Information
#_______________________________________________________________________________
#
#PARAMETER_NAME    .UNIT     VALUE                         : DESCRIPTION
#_______________________________________________________________________________
STRT               .m        3.81                          : First reference value
STOP               .m        2245.7664                     : Last reference value
STEP               .m        0.1524                        : Step increment
NULL               .         -9999                         : Missing value
COMP               .                                       : Company
WELL               .         1-ALV-2-BA                    : Well name
FLD                .         REC-T-155                     : Field
LOC                .                                       : Location
SRVC               .                                       : Service Company
CTRY               .                                       : Country
DATE               .                                       : Service Date
X                  .                                       : X or East-West coordinate
Y                  .                                       : Y or North South coordinate
GDAT               .                                       : Geodetic Datum
HZCS               .                                       : Horizontal Co-ordinate System
COMPANY            .         ALVORADA                      : 
CREATION-TIME      .         2021/8/18 13_56               : 
FIELD-NAME         .         REC-T-155                     : 
FILE-ID            .         ALV2FM.001                    : 
FILE-NUMBER        .         2                             : 
FILE-SET-NAME      .         LIS-TO-DLIS-CONVERSION        : 
FILE-SET-NUMBER    .         8788                          : 
FILE-TYPE          .         OAKSFT                        : 
NAME-SPACE-NAME    .                                       : 
NAME-SPACE-VERSION .         0                             : 
PRODUCER-CODE      .         440                           : 
PRODUCER-NAME      .         Schlumberger                  : 
PRODUCT            .         DLIS/U                        : 
PROGRAMS           .         LIS-TO-DLIS                   : 
VERSION            .         0.1                           : 
WELL-ID            .         20240024159                   : 
WELL-NAME          .         1-ALV-2-BA                    : 
~Parameter Information Block
#_______________________________________________________________________________
#
#PARAMETER_NAME    .UNIT     VALUE                         : DESCRIPTION
#_______________________________________________________________________________
SET                .         Merged_Set                    : 
TLFamily_DENS      .         Bulk Density                  : 
TLFamily_GR        .         Gamma Ray                     : 
TLFamily_ILD       .         Deep Resistivity              : 
TLFamily_ILM       .         Medium Resistivity            : 
TLFamily_MD        .         Measured Depth                : 
TLFamily_Neu       .         Neutron Porosity              : 
TLFamily_Porosity-Density .         Porosity                      : 
TLFamily_VSH_GR    .         Shale Volume                  : 
~Curve Information
#_______________________________________________________________________________
#
#LOGNAME           .UNIT     LOG_ID                        : DESCRIPTION
#_______________________________________________________________________________
MD                 .m                                      :  {F}
DENS               .g/cm3                                  :  {F}
GR                 .gAPI                                   :  {F}
ILD                .ohm.m                                  :  {F}
ILM                .ohm.m                                  :  {F}
Neu                .m3/m3                                  :  {F}
Porosity-Density   .v/v                                    :  {F}
VSH_GR             .v/v                                    :  {F}
~Ascii
# ...
1043.94    -9999      30.38156   4.795429   7.183675   -9999      -9999      0.2264618 
1044.0924  -9999      28.22421   3.96469    5.999809   -9999      -9999      0.2024913 
1044.2448  -9999      28.795     3.326092   4.849948   -9999      -9999      0.2088333 
1044.3972  -9999      31.20326   2.842553   3.854762   -9999      -9999      0.2355917 
1044.5496  -9999      36.01103   2.499325   3.087782   -9999      -9999      0.2890114 
1044.702   -9999      43.12385   2.256004   2.554055   -9999      -9999      0.3680428 
1044.8544  -9999      52.10294   2.08086    2.214122   -9999      -9999      0.4678105 
1045.0068  -9999      58.35991   1.948282   2.021207   -9999      -9999      0.5373323 
1045.1592  -9999      61.16744   1.856065   1.929356   -9999      -9999      0.5685271 
1045.3116  -9999      64.30821   1.807015   1.900827   -9999      -9999      0.6034246 
1045.464   -9999      66.6105    1.795313   1.902258   -9999      -9999      0.6290055 
1045.6164  -9999      68.95175   1.810686   1.910825   -9999      -9999      0.6550195 
1045.7688  -9999      73.06124   1.841708   1.917825   -9999      -9999      0.7006804 
1045.9212  -9999      75.50555   1.877588   1.925089   -9999      -9999      0.7278394 
1046.0736  -9999      70.57901   1.913138   1.937497   -9999      -9999      0.6731001 
1046.226   -9999      63.36137   1.945587   1.957432   -9999      -9999      0.5929042 
1046.3784  -9999      59.59779   1.977322   1.985649   -9999      -9999      0.5510866 
1046.5308  -9999      61.37359   2.005562   2.023419   -9999      -9999      0.5708177 
1046.6832  -9999      62.88966   2.027593   2.069063   -9999      -9999      0.5876629 
1046.8356  -9999      59.34242   2.042783   2.11379    -9999      -9999      0.5482491 
1046.988   -9999      60.51091   2.051994   2.14261    -9999      -9999      0.5612323 
1047.1404  -9999      66.08495   2.054052   2.144829   -9999      -9999      0.6231661 
1047.2928  -9999      65.30883   2.048886   2.123163   -9999      -9999      0.6145425 
1047.4452  -9999      61.61829   2.034686   2.092396   -9999      -9999      0.5735366 
1047.5976  -9999      61.9421    2.014494   2.067191   -9999      -9999      0.5771344 
1047.75    -9999      62.65572   1.994726   2.053497   -9999      -9999      0.5850636 
1047.9024  -9999      63.12766   1.979638   2.049434   -9999      -9999      0.5903074 
1048.0548  -9999      66.97842   1.972038   2.049473   -9999      -9999      0.6330935 
1048.2072  -9999      67.03751   1.972151   2.049823   -9999      -9999      0.6337501 
1048.3596  -9999      62.67854   1.976715   2.04961    -9999      -9999      0.5853171 
1048.512   -9999      60.84298   1.983546   2.04984    -9999      -9999      0.564922  
1048.6644  -9999      61.79954   1.99078    2.051533   -9999      -9999      0.5755504 
1048.8168  -9999      64.74582   1.998062   2.056271   -9999      -9999      0.6082869 
1048.9692  -9999      67.31522   2.007994   2.065371   -9999      -9999      0.6368358 
1049.1216  -9999      65.30814   2.017986   2.079842   -9999      -9999      0.6145349 
1049.274   -9999      64.10287   2.028111   2.098631   -9999      -9999      0.6011429 
1049.4264  -9999      65.07005   2.040224   2.117944   -9999      -9999      0.6118895 
1049.5788  -9999      64.52317   2.052128   2.132928   -9999      -9999      0.605813  
1049.7312  -9999      66.64003   2.05755    2.141038   -9999      -9999      0.6293337 
1049.8836  -9999      71.03757   2.053808   2.141914   -9999      -9999      0.6781952 
1050.036   -9999      70.60785   2.043896   2.136131   -9999      -9999      0.6734205 
1050.1884  -9999      67.39896   2.031956   2.123652   -9999      -9999      0.6377662 
1050.3408  -9999      69.37373   2.020582   2.104842   -9999      -9999      0.6597081 
1050.4932  -9999      72.82993   2.009559   2.081936   -9999      -9999      0.6981103 
1050.6456  -9999      71.21892   2.00117    2.059421   -9999      -9999      0.6802102 
1050.798   -9999      70.11746   1.996827   2.041766   -9999      -9999      0.6679718 
1050.9504  -9999      68.69204   1.996361   2.032444   -9999      -9999      0.6521338 
1051.1028  -9999      65.21192   1.998137   2.033837   -9999      -9999      0.6134658 
1051.2552  -9999      64.59403   2.002498   2.045581   -9999      -9999      0.6066003 
1051.4076  -9999      65.86813   2.009225   2.062297   -9999      -9999      0.620757  
1051.56    -9999      67.73727   2.01565    2.075559   -9999      -9999      0.6415252 
1051.7124  -9999      69.19705   2.023054   2.079026   -9999      -9999      0.657745  
1051.8648  -9999      70.4302    2.027803   2.071713   -9999      -9999      0.6714467 
1052.0172  -9999      72.6349    2.029721   2.05823    -9999      -9999      0.6959434 
1052.1696  -9999      72.55602   2.029386   2.044775   -9999      -9999      0.6950668 
1052.322   -9999      69.37822   2.026767   2.034962   -9999      -9999      0.659758  
1052.4744  -9999      65.50072   2.020545   2.028289   -9999      -9999      0.6166747 
1052.6268  -9999      63.63705   2.010838   2.021655   -9999      -9999      0.5959672 
1052.7792  -9999      66.31494   1.997529   2.011285   -9999      -9999      0.6257216 
1052.9316  -9999      69.97058   1.982788   1.994784   -9999      -9999      0.6663398 
1053.084   -9999      70.48143   1.969315   1.972335   -9999      -9999      0.6720159 
1053.2364  -9999      72.14246   1.957788   1.947899   -9999      -9999      0.6904718 
1053.3888  -9999      74.47518   1.950661   1.927511   -9999      -9999      0.7163909 
1053.5412  -9999      74.19173   1.949478   1.916758   -9999      -9999      0.7132414 
1053.6936  -9999      72.41958   1.955505   1.918295   -9999      -9999      0.6935509 
1053.846   -9999      69.26019   1.968166   1.931842   -9999      -9999      0.6584466 
1053.9984  -9999      69.21375   1.986508   1.954725   -9999      -9999      0.6579305 
1054.1508  -9999      72.95449   2.004524   1.982831   -9999      -9999      0.6994944 
1054.3032  -9999      75.59595   2.021378   2.011133   -9999      -9999      0.7288439 
1054.4556  -9999      72.72256   2.035054   2.035765   -9999      -9999      0.6969174 
1054.608   -9999      68.08468   2.048722   2.054328   -9999      -9999      0.6453853 
1054.7604  -9999      66.06541   2.062127   2.066993   -9999      -9999      0.6229489 
1054.9128  -9999      64.91895   2.074562   2.076065   -9999      -9999      0.6102106 
1055.0652  -9999      65.39102   2.086335   2.085174   -9999      -9999      0.6154558 
1055.2176  -9999      65.67509   2.105475   2.098858   -9999      -9999      0.6186122 
1055.37    -9999      61.26748   2.134647   2.122329   -9999      -9999      0.5696386 
1055.5224  -9999      58.207     2.178051   2.160048   -9999      -9999      0.5356333 
1055.6748  -9999      61.54572   2.233058   2.215093   -9999      -9999      0.5727302 
1055.8272  -9999      66.72186   2.306761   2.286764   -9999      -9999      0.6302429 
1055.9796  -9999      68.81882   2.387587   2.37308    -9999      -9999      0.6535424 
1056.132   -9999      67.62285   2.450831   2.468628   -9999      -9999      0.6402539 
1056.2844  -9999      67.46543   2.484016   2.559362   -9999      -9999      0.6385048 
1056.4368  -9999      67.53336   2.499347   2.622306   -9999      -9999      0.6392595 
1056.5892  -9999      66.73474   2.504296   2.630594   -9999      -9999      0.630386  
1056.7416  -9999      67.2112    2.501809   2.577656   -9999      -9999      0.63568   
1056.894   -9999      65.88198   2.482444   2.487638   -9999      -9999      0.6209109 
1057.0464  -9999      61.53822   2.437557   2.395129   -9999      -9999      0.5726469 
1057.1988  -9999      62.8287    2.384646   2.327441   -9999      -9999      0.5869856 
1057.3512  -9999      70.29543   2.336033   2.292062   -9999      -9999      0.6699492 
1057.5036  -9999      73.79831   2.304389   2.283629   -9999      -9999      0.7088701 
1057.656   -9999      68.42322   2.293927   2.291208   -9999      -9999      0.6491469 
