~Version
 VERS              .         3.0                           : CWLS LOG ASCII STANDARD - VERSION 3.0
 WRAP              .         NO                            : ONE LINE PER DEPTH STEP
 DLM               .         SPACE                         : DELIMITING CHARACTER(SPACE TAB OR COMMA)
~Well Information
#_______________________________________________________________________________
#
#PARAMETER_NAME    .UNIT     VALUE                         : DESCRIPTION
#_______________________________________________________________________________
STRT               .m        3.81                          : First reference value
STOP               .m        2245.7664                     : Last reference value
STEP               .m        0.1524                        : Step increment
NULL               .         -9999                         : Missing value
COMP               .                                       : Company
WELL               .         1-ALV-2-BA                    : Well name
FLD                .         REC-T-155                     : Field
LOC                .                                       : Location
SRVC               .                                       : Service Company
CTRY               .                                       : Country
DATE               .                                       : Service Date
X                  .                                       : X or East-West coordinate
Y                  .                                       : Y or North South coordinate
GDAT               .                                       : Geodetic Datum
HZCS               .                                       : Horizontal Co-ordinate System
COMPANY            .         ALVORADA                      : 
CREATION-TIME      .         2021/8/18 13_56               : 
FIELD-NAME         .         REC-T-155                     : 
FILE-ID            .         ALV2FM.001                    : 
FILE-NUMBER        .         2                             : 
FILE-SET-NAME      .         LIS-TO-DLIS-CONVERSION        : 
FILE-SET-NUMBER    .         8788                          : 
FILE-TYPE          .         OAKSFT                        : 
NAME-SPACE-NAME    .                                       : 
NAME-SPACE-VERSION .         0                             : 
PRODUCER-CODE      .         440                           : 
PRODUCER-NAME      .         Schlumberger                  : 
PRODUCT            .         DLIS/U                        : 
PROGRAMS           .         LIS-TO-DLIS                   : 
VERSION            .         0.1                           : 
WELL-ID            .         20240024159                   : 
WELL-NAME          .         1-ALV-2-BA                    : 
~Parameter Information Block
#_______________________________________________________________________________
#
#PARAMETER_NAME    .UNIT     VALUE                         : DESCRIPTION
#_______________________________________________________________________________
SET                .         Merged_Set                    : 
TLFamily_DENS      .         Bulk Density                  : 
TLFamily_GR        .         Gamma Ray                     : 
TLFamily_ILD       .         Deep Resistivity              : 
TLFamily_ILM       .         Medium Resistivity            : 
TLFamily_MD        .         Measured Depth                : 
TLFamily_Neu       .         Neutron Porosity              : 
TLFamily_Porosity-Density .         Porosity                      : 
TLFamily_VSH_GR    .         Shale Volume                  : 
~Curve Information
#_______________________________________________________________________________
#
#LOGNAME           .UNIT     LOG_ID                        : DESCRIPTION
#_______________________________________________________________________________
MD                 .m                                      :  {F}
DENS               .g/cm3                                  :  {F}
GR                 .gAPI                                   :  {F}
ILD                .ohm.m                                  :  {F}
ILM                .ohm.m                                  :  {F}
Neu                .m3/m3                                  :  {F}
Porosity-Density   .v/v                                    :  {F}
VSH_GR             .v/v                                    :  {F}
~Ascii
# ...
932.9928   -9999      59.14146   1.630195   1.638661   -9999      -9999      0.5460162 
933.1452   -9999      58.08456   1.62166    1.621122   -9999      -9999      0.5342728 
933.2976   -9999      60.23755   1.620595   1.610962   -9999      -9999      0.558195  
933.45     -9999      59.92337   1.625085   1.613338   -9999      -9999      0.5547041 
933.6024   -9999      61.99961   1.631754   1.631162   -9999      -9999      0.5777734 
933.7548   -9999      65.17527   1.642991   1.663359   -9999      -9999      0.6130586 
933.9072   -9999      63.2066    1.667663   1.702551   -9999      -9999      0.5911845 
934.0596   -9999      59.64671   1.713314   1.739993   -9999      -9999      0.5516301 
934.212    -9999      59.50976   1.782897   1.771883   -9999      -9999      0.5501085 
934.3644   -9999      62.54481   1.872368   1.805572   -9999      -9999      0.5838312 
934.5168   -9999      61.77744   1.96678    1.85813    -9999      -9999      0.5753049 
934.6692   -9999      59.21883   2.029233   1.945693   -9999      -9999      0.5468759 
934.8216   -9999      61.52707   2.057089   2.067319   -9999      -9999      0.5725231 
934.974    -9999      63.1264    2.049481   2.188638   -9999      -9999      0.5902933 
935.1264   -9999      60.44198   2.02696    2.246847   -9999      -9999      0.5604664 
935.2788   -9999      56.99672   2.002644   2.197853   -9999      -9999      0.5221858 
935.4312   -9999      54.97629   1.970204   2.066061   -9999      -9999      0.4997365 
935.5836   -9999      57.86555   1.928573   1.920252   -9999      -9999      0.5318394 
935.736    -9999      63.31336   1.874447   1.812029   -9999      -9999      0.5923707 
935.8884   -9999      63.56353   1.810723   1.759977   -9999      -9999      0.5951504 
936.0408   -9999      59.88643   1.754393   1.757828   -9999      -9999      0.5542937 
936.1932   -9999      56.53762   1.716534   1.785533   -9999      -9999      0.5170847 
936.3456   -9999      55.35456   1.701247   1.815534   -9999      -9999      0.5039396 
936.498    -9999      54.97346   1.708808   1.822726   -9999      -9999      0.4997052 
936.6504   -9999      57.98146   1.730591   1.799423   -9999      -9999      0.5331274 
936.8028   -9999      62.03364   1.753039   1.760533   -9999      -9999      0.5781516 
936.9552   -9999      61.10852   1.765718   1.731954   -9999      -9999      0.5678724 
937.1076   -9999      60.10922   1.765179   1.73201    -9999      -9999      0.5567691 
937.26     -9999      60.38646   1.763353   1.762034   -9999      -9999      0.5598495 
937.4124   -9999      59.83924   1.769526   1.805717   -9999      -9999      0.5537694 
937.5648   -9999      57.59616   1.783838   1.837495   -9999      -9999      0.5288463 
937.7172   -9999      55.22873   1.798052   1.841778   -9999      -9999      0.5025414 
937.8696   -9999      54.40479   1.797959   1.821604   -9999      -9999      0.4933865 
938.022    -9999      55.42257   1.781051   1.790518   -9999      -9999      0.5046952 
938.1744   -9999      59.2618    1.755191   1.758793   -9999      -9999      0.5473533 
938.3268   -9999      60.34505   1.727281   1.728931   -9999      -9999      0.5593895 
938.4792   -9999      58.74957   1.704593   1.701332   -9999      -9999      0.5416619 
938.6316   -9999      60.75764   1.688507   1.679228   -9999      -9999      0.5639738 
938.784    -9999      62.02578   1.677743   1.667032   -9999      -9999      0.5780642 
938.9364   -9999      62.10601   1.675097   1.666342   -9999      -9999      0.5789557 
939.0888   -9999      64.69124   1.683318   1.674529   -9999      -9999      0.6076804 
939.2412   -9999      65.94587   1.702289   1.687373   -9999      -9999      0.6216208 
939.3936   -9999      65.85602   1.724748   1.703568   -9999      -9999      0.6206224 
939.546    -9999      64.34406   1.746344   1.725231   -9999      -9999      0.6038229 
939.6984   -9999      64.67152   1.762825   1.755112   -9999      -9999      0.6074614 
939.8508   -9999      64.7665    1.775307   1.791828   -9999      -9999      0.6085167 
940.0032   -9999      61.3551    1.789387   1.828993   -9999      -9999      0.5706123 
940.1556   -9999      60.29369   1.813048   1.86022    -9999      -9999      0.5588188 
940.308    -9999      61.6145    1.850168   1.885535   -9999      -9999      0.5734945 
940.4604   -9999      60.91066   1.918273   1.915663   -9999      -9999      0.5656739 
940.6128   -9999      57.41619   2.021283   1.97011    -9999      -9999      0.5268466 
940.7652   -9999      53.04836   2.166979   2.074047   -9999      -9999      0.4783151 
940.9176   -9999      52.18778   2.345355   2.251313   -9999      -9999      0.4687531 
941.07     -9999      53.38136   2.550903   2.517844   -9999      -9999      0.4820151 
941.2224   -9999      56.56169   2.757964   2.864929   -9999      -9999      0.5173521 
941.3748   -9999      59.50937   2.941937   3.245163   -9999      -9999      0.5501041 
941.5272   -9999      57.43581   3.045228   3.547492   -9999      -9999      0.5270646 
941.6796   -9999      54.40203   3.075478   3.646104   -9999      -9999      0.4933559 
941.832    -9999      54.5306    3.044631   3.505473   -9999      -9999      0.4947845 
941.9844   -9999      57.02891   2.972147   3.229017   -9999      -9999      0.5225434 
942.1368   -9999      55.77677   2.878576   2.958047   -9999      -9999      0.5086308 
942.2892   -9999      50.75541   2.783802   2.781935   -9999      -9999      0.4528378 
942.4416   -9999      51.08043   2.734529   2.720613   -9999      -9999      0.4564492 
942.594    -9999      55.00752   2.767927   2.76028    -9999      -9999      0.5000836 
942.7464   -9999      57.84713   2.873784   2.875995   -9999      -9999      0.5316347 
942.8988   -9999      59.51968   2.997565   3.045097   -9999      -9999      0.5502186 
943.0512   -9999      56.86533   3.080044   3.248064   -9999      -9999      0.5207259 
943.2036   -9999      55.13024   3.062536   3.426903   -9999      -9999      0.5014471 
943.356    -9999      55.31664   2.955073   3.46807    -9999      -9999      0.5035182 
943.5084   -9999      53.38061   2.817199   3.277333   -9999      -9999      0.4820068 
943.6608   -9999      53.97646   2.669215   2.912663   -9999      -9999      0.4886273 
943.8132   -9999      57.20307   2.513384   2.541924   -9999      -9999      0.5244786 
943.9656   -9999      60.48506   2.335819   2.276363   -9999      -9999      0.5609452 
944.118    -9999      62.48321   2.169678   2.135109   -9999      -9999      0.5831468 
944.2704   -9999      61.22251   2.055336   2.087626   -9999      -9999      0.5691389 
944.4228   -9999      54.96166   2.017322   2.08749    -9999      -9999      0.499574  
944.5752   -9999      50.42203   2.046482   2.102328   -9999      -9999      0.4491337 
944.7276   -9999      53.45061   2.119116   2.130602   -9999      -9999      0.4827846 
944.88     -9999      58.50869   2.215422   2.188016   -9999      -9999      0.5389855 
945.0324   -9999      56.43651   2.325325   2.280648   -9999      -9999      0.5159612 
945.1848   -9999      50.0498    2.443433   2.395103   -9999      -9999      0.4449978 
945.3372   -9999      46.60815   2.524211   2.511913   -9999      -9999      0.4067573 
945.4896   -9999      44.16721   2.531473   2.609734   -9999      -9999      0.3796357 
945.642    -9999      44.60289   2.467212   2.660933   -9999      -9999      0.3844765 
945.7944   -9999      48.22737   2.360235   2.624194   -9999      -9999      0.4247485 
945.9468   -9999      50.49251   2.265481   2.48545    -9999      -9999      0.4499168 
946.0992   -9999      51.96537   2.187049   2.28881    -9999      -9999      0.4662819 
946.2516   -9999      54.52081   2.125298   2.108594   -9999      -9999      0.4946756 
946.404    -9999      54.30206   2.080413   1.991224   -9999      -9999      0.4922451 
946.5564   -9999      52.46039   2.059752   1.951084   -9999      -9999      0.4717821 
946.7088   -9999      55.38148   2.05628    1.98297    -9999      -9999      0.5042387 
